City,State,Country,Primary Entity,Other Entities,Entity Type,"Contents/Notes (keywords, event, important names)",Content Type,Publication,Vol #,Issue #,Month,Year,ID,concat_key,Longitude,Latitude
New York,NY,United States,Lesbian Herstory Archives,,Archive,history; interviews; books,Advertisement,Lesbian Connection,3,6,December,1977,https://www.jstor.org/stable/pdf/community.28039178.pdf?refreqid=excelsior%3A7a54eb49ecfcf11b2aa06ac9daf6a8b9,New York_NY_United States,-74.006015,40.7127281
New York,NY,United States,Lesbian Herstory Archives,Joan & Deb,Archive,lesbian culture; collection; history; artifacts; newsletter,Advertisement,Lesbian Connection,3,6,December,1977,https://www.jstor.org/stable/pdf/community.28039178.pdf?refreqid=excelsior%3A7a54eb49ecfcf11b2aa06ac9daf6a8b8,New York_NY_United States,-74.006015,40.7127281
Hadley,MA,United States,International Women Artist Archives,R Anderson,Archive,Looking for photographs of artwork by women,Request,Lesbian Connection,6,1,December,1982,https://www.jstor.org/stable/pdf/community.28039197.pdf?refreqid=excelsior%3A36736269a300d90d9f9b201f149c5991,Hadley_MA_United States,-72.562088,42.35637
Florence,MA,United States,New Alexandria Lesbian Library,,Archive,grassroots national community archive seeking three lesbians to work with library,Request,Lesbian Connection,6,1,December,1982,https://www.jstor.org/stable/pdf/community.28039197.pdf?refreqid=excelsior%3A36736269a300d90d9f9b201f149c5991,Florence_MA_United States,-87.677251,34.79981
Paris,,France,Recherches et Cultures Lesbiennes (The Lesbian Archives),,Archive,"international documentation and information by, for, and about lesbians; included in unofficial directory called ""Bits & Pieces""",Directory,Lesbian Connection,9,5,March,1987,https://www.jstor.org/stable/pdf/community.28039219.pdf?refreqid=excelsior%3Abdf301575c90c0a78707ca085ff6dc10,Paris__France,2.32004102,48.8588897
Leeuwarden,,Netherlands,Lesbisch Archief Leeuwarden,,Archive,first lesbian archives in the Netherlands; collecting all info on lesbian existence; bits & pieces section,Directory,Lesbian Connection,8,1,June/July,1985,https://www.jstor.org/stable/community.28039209?seq=1#metadata_info_tab_contents,Leeuwarden__Netherlands,5.7918548,53.2005936
London,England,United Kingdom,Lesbian Studies Summer School,Lesbian Archive and Information Centre,Archive,,Advertisement,Lesbian Connection,10,6,May/June,1988,https://www.jstor.org/stable/community.28039226,London_England_United Kingdom,-0.1276474,51.5073219
Milwaukee,WI,United States,Natural Women,Woman's Soul Publishing,Art Organization,"opening of women's art gallery, literature and music outlet, and performing stage for women artists",Advertisement,Lesbian Connection,1,4,March,1975,https://www.jstor.org/stable/community.28039159?seq=1#metadata_info_tab_contents,Milwaukee_WI_United States,-87.922497,43.0349931
Santa Cruz,CA,United States,National Festival of Women's Theatre,,Art Organization,"offering a week-long festival of women's theatre with performances, workshops, seminars",Advertisement,Lesbian Connection,6,1,December,1982,https://www.jstor.org/stable/pdf/community.28039197.pdf?refreqid=excelsior%3A36736269a300d90d9f9b201f149c5991,Santa Cruz_CA_United States,-121.99059,37.050096
Portland,OR,United States,The Lesbian Art Movement,,Art Organization,lesbian artists and art supporters gathering,Directory,Lesbian Connection,9,5,March,1987,https://www.jstor.org/stable/pdf/community.28039219.pdf?refreqid=excelsior%3Abdf301575c90c0a78707ca085ff6dc10,Portland_OR_United States,-122.67419,45.5202471
Tri-Cities,WA,United States,Gay Rap Group,Mary,Art Organization,music; poetry; contact Mary for meeting location and time,Directory,Lesbian Connection,9,5,March,1987,https://www.jstor.org/stable/pdf/community.28039219.pdf?refreqid=excelsior%3Abdf301575c90c0a78707ca085ff6dc10,Tri-Cities_WA_United States,-119.11867,46.2626203
Seattle,WA,United States,Day Moon Designs,Noreen Scully,Art Organization,"Announcement Title: ""The Kiss."" Advertising lesbian art by Noreen Scully.",Advertisement,Lesbian Connections,2,6,November,1976,https://www.jstor.org/stable/community.28039169?seq=1#metadata_info_tab_contents,Seattle_WA_United States,-122.33006,47.6038321
Los Angeles,CA,United States,the Woman's Building,The Chrysalis,Art Organization,"Sculptures in Dough', Women delight women, feminist workshops, subscription",Advertisement,Lesbian Connection,,Winter Supplement,December,1977,https://www.jstor.org/stable/community.28039179?seq=21,Los Angeles_CA_United States,-118.24277,34.0536909
Provincetown,MA,United States,Freehand,,Art Organization,"Poetry, prose, photography, bodywork, performance, ""many special faculty and visiting artists""",Advertisement,Lesbian Connection,9,3,December,1986,https://www.jstor.org/stable/community.28039217?seq=18,Provincetown_MA_United States,-70.185864,42.0525612
Philadelphia,PA,United States,Order Before Midnight,Carol Moore,Art Organization,"Bits & Pieces; A feminist evolutionary arts ensemble, is putting on two of Jane Chamber's plays in Philadelphia and at the Lesbian Feminist Weekend last September.",Directory,Lesbian Connection,10,6,May/June,1988,https://www.jstor.org/stable/community.28039226,Philadelphia_PA_United States,-75.163526,39.9527237
Chicago,IL,United States,Womens Graphics Collective,5th Annual Lesbian Writers Conference,Art Organization,"Announcement of new posters including erotica, tribute to Malvina Reynolds, Mujeres Latinias en Acción, and %th Annual Lesbian Writers Conference. Keywords: posters, art, erotica, latina",Advertisement,Lesbian Connection,Winter Supplement,Winter Supplement,December,1978,https://www.jstor.org/stable/community.28039187?seq=4,Chicago_IL_United States,-87.624421,41.8755616
Cincinnati,OH,United States,Labyris Bookstore Collective,,Bookstore,merchandise; literature,Article,Lesbian Connection,1,4,March,1975,https://www.jstor.org/stable/community.28039159?seq=1#metadata_info_tab_contents,Cincinnati_OH_United States,-84.51246,39.1014537
Phoenix,AZ,United States,Womansplace,,Bookstore,books by mail; annotated booklists for lesbians; business,Advertisement,Lesbian Connection,3,6,December,1977,https://www.jstor.org/stable/pdf/community.28039178.pdf?refreqid=excelsior%3A7a54eb49ecfcf11b2aa06ac9daf6a8b8,Phoenix_AZ_United States,-112.07414,33.4484367
Hayward,CA,United States,The Oracle Feminist Books,,Bookstore,feminist and lesbian literature; books; children's books; merchandise,Advertisement,Lesbian Connection,3,6,December,1977,https://www.jstor.org/stable/pdf/community.28039178.pdf?refreqid=excelsior%3A804bdd737db80c748974394df88a950f,Hayward_CA_United States,-122.0808,37.6688205
Boulder,CO,United States,Lilith,,Bookstore,books; merchandise; women's bookstore,Advertisement,Lesbian Connection,3,6,December,1977,https://www.jstor.org/stable/pdf/community.28039178.pdf?refreqid=excelsior%3A7a54eb49ecfcf11b2aa06ac9daf6a8b23,Boulder_CO_United States,-105.27024,40.0154155
Iowa City,IA,United States,The Plainswoman Bookstore,,Bookstore,books by and about women; apparel; records; merchandise,Advertisement,Lesbian Connection,3,6,December,1977,https://www.jstor.org/stable/pdf/community.28039178.pdf?refreqid=excelsior%3A7a54eb49ecfcf11b2aa06ac9daf6a8b8,Iowa City_IA_United States,-91.529911,41.6612561
East Lansing,MI,United States,Womanself Bookstore,,Bookstore,books; records; jewelry; merchandise,Advertisement,Lesbian Connection,3,6,December,1977,https://www.jstor.org/stable/pdf/community.28039178.pdf?refreqid=excelsior%3A804bdd737db80c748974394df88a950f,East Lansing_MI_United States,-84.472168,42.7320307
Highland Park,MI,United States,Hershelf Wimmin's Books & Crafts,,Bookstore,books; records; apparel; merchandise,Advertisement,Lesbian Connection,3,6,December,1977,https://www.jstor.org/stable/pdf/community.28039178.pdf?refreqid=excelsior%3A7a54eb49ecfcf11b2aa06ac9daf6a8b8,Highland Park_MI_United States,-83.096583,42.4055981
Kansas City,MO,United States,New Earth Bookstore,,Bookstore,mail order catalog; annotated booklist for lesbians and feminists; literature; Gaia's Guide available,Advertisement,Lesbian Connection,3,6,December,1977,https://www.jstor.org/stable/pdf/community.28039178.pdf?refreqid=excelsior%3A7a54eb49ecfcf11b2aa06ac9daf6a8b8,Kansas City_MO_United States,-94.578142,39.100105
Kansas City,MO,United States,New Earth Bookstore,Gaia's Guide,Bookstore,books; merchandise; advertising for distribution of Gaia's Guide; catalogs,Advertisement,Lesbian Connection,3,6,December,1977,https://www.jstor.org/stable/pdf/community.28039178.pdf?refreqid=excelsior%3A7a54eb49ecfcf11b2aa06ac9daf6a8b8,Kansas City_MO_United States,-94.578142,39.100105
Warner,NH,United States,Womenswords Books,,Bookstore,"lesbian feminist book search; used, rare, and out of print books by and about women; collection; merchandise",Advertisement,Lesbian Connection,3,6,December,1977,https://www.jstor.org/stable/pdf/community.28039178.pdf?refreqid=excelsior%3A7a54eb49ecfcf11b2aa06ac9daf6a8b8,Warner_NH_United States,-71.81694,43.280705
Las Vegas,NV,United States,Women's Words,,Bookstore,feminist and lesbian bookstore; books; merchandise,Advertisement,Lesbian Connection,3,6,December,1977,https://www.jstor.org/stable/pdf/community.28039178.pdf?refreqid=excelsior%3A7a54eb49ecfcf11b2aa06ac9daf6a8b24,Las Vegas_NV_United States,-115.14852,36.1672559
Buffalo,NY,United States,Emma: Buffalo Women's Bookstore,,Bookstore,books; literature; merchandise; library,Advertisement,Lesbian Connection,3,6,December,1977,https://www.jstor.org/stable/pdf/community.28039178.pdf?refreqid=excelsior%3A804bdd737db80c748974394df88a950f,Buffalo_NY_United States,-78.878392,42.8867166
Milwaukee,WI,United States,Sistermoon Feminist Bookstore and Art Gallery,,Bookstore,lesbian feminist books; apparel; jewelry; art shows; music; self defense classes; community space,Advertisement,Lesbian Connection,3,6,December,1977,https://www.jstor.org/stable/pdf/community.28039178.pdf?refreqid=excelsior%3A7a54eb49ecfcf11b2aa06ac9daf6a8b8,Milwaukee_WI_United States,-87.922497,43.0349931
New Haven,CT,United States,Goldenthread Booksellers,,Bookstore,feminist bookstore; merchandise; business,Advertisement,Lesbian Connection,6,1,December,1982,https://www.jstor.org/stable/pdf/community.28039197.pdf?refreqid=excelsior%3A36736269a300d90d9f9b201f149c5991,New Haven_CT_United States,-72.925052,41.3082138
Milwaukee,WI,United States,Sistermoon Feminist Bookstore and Art Gallery,,Bookstore,"books, jewelry, records, clothing, pottery, arts and crafts, art gallery",Advertisement,Lesbian Connection,6,1,December,1982,https://www.jstor.org/stable/pdf/community.28039197.pdf?refreqid=excelsior%3A36736269a300d90d9f9b201f149c5991,Milwaukee_WI_United States,-87.922497,43.0349931
Philadelphia,PA,United States,Giovanni's Room,,Bookstore,"complete collection of lesbian, feminist, and gay books, periodicals, records, etc.; foreign language titles; books, liiterature",Advertisement,Lesbian Connection,9,5,March,1987,https://www.jstor.org/stable/pdf/community.28039219.pdf?refreqid=excelsior%3Abdf301575c90c0a78707ca085ff6dc10,Philadelphia_PA_United States,-75.163526,39.9527237
Huntington Station,NY,United States,Womankind Books,,Bookstore,free lesbian mail order catalog,Advertisement,Lesbian Connection,9,5,March,1987,https://www.jstor.org/stable/pdf/community.28039219.pdf?refreqid=excelsior%3Abdf301575c90c0a78707ca085ff6dc10,Huntington Station_NY_United States,-73.411509,40.8534318
Portland,ME,United States,Aradia Books,,Bookstore,"feminist, lesbian, goddess books",Advertisement,Lesbian Connection,9,5,March,1987,https://www.jstor.org/stable/pdf/community.28039219.pdf?refreqid=excelsior%3Abdf301575c90c0a78707ca085ff6dc10,Portland_ME_United States,-70.25486,43.6610277
Albuquerque,NM,United States,Full Circle Books,,Bookstore,sent in list of their bestsellers to LC to publish alongside list from other bookstore,Article,Lesbian Connection,8,1,June/July,1985,https://www.jstor.org/stable/community.28039209?seq=1#metadata_info_tab_contents,Albuquerque_NM_United States,-106.65099,35.0841034
Lilyfield,New South Wales,Australia,The Feminist Bookshop,,Bookstore,sent in list of their bestsellers to LC to publish alongside list from other bookstore,Article,Lesbian Connection,8,1,June/July,1985,https://www.jstor.org/stable/community.28039209?seq=1#metadata_info_tab_contents,Lilyfield_New South Wales_Australia,151.161619,-33.870988
Miami,FL,United States,Humpers,,Bookstore,new lesbian/gay bookstore that opened previous fall; business; bits & pieces section,Directory,Lesbian Connection,8,1,June/July,1985,https://www.jstor.org/stable/community.28039209?seq=1#metadata_info_tab_contents,Miami_FL_United States,-80.19362,25.7741728
Houston,TX,United States,Wilde & Stein Books,,Bookstore,bits & pieces section ; no address given,Directory,Lesbian Connection,8,1,June/July,1985,https://www.jstor.org/stable/community.28039209?seq=1#metadata_info_tab_contents,Houston_TX_United States,-95.367697,29.7589382
Minneapolis,MN,United States,Amazon Bookstore,,Bookstore,Notice that location of Amazon Bookstore has moved; business,Advertisement,Lesbian Connection,8,1,June/July,1985,https://www.jstor.org/stable/community.28039209?seq=1#metadata_info_tab_contents,Minneapolis_MN_United States,-93.265469,44.9772995
Columbus,OH,United States,Fan the Flames,,Bookstore,women's bookstore; at the YMCA in downtown Columbus; oldest women's bookstore,Advertisement,Lesbian Connection,8,1,June/July,1985,https://www.jstor.org/stable/community.28039209?seq=1#metadata_info_tab_contents,Columbus_OH_United States,-83.000707,39.9622601
San Francisco,CA,United States,Old Wives Tales,,Bookstore,"Women's visions and books; selection of lesbian, third world, and children's (non-sexist) books",Advertisement,Lesbian Connection,8,1,June/July,1985,https://www.jstor.org/stable/community.28039209?seq=1#metadata_info_tab_contents,San Francisco_CA_United States,-122.41991,37.7790262
Pittsburgh,PA,United States,Gertrude Stein Memorial Bookshop,,Bookstore,"new women's bookstore; books, records, jewelry",Advertisement,Lesbian Connection,8,1,June/July,1985,https://www.jstor.org/stable/community.28039209?seq=1#metadata_info_tab_contents,Pittsburgh_PA_United States,-79.990086,40.4416941
Cincinnati,OH,United States,Crazy Ladies Bookstore,,Bookstore,"books, records, and gifts for women",Advertisement,Lesbian Connection,8,1,June/July,1985,https://www.jstor.org/stable/community.28039209?seq=1#metadata_info_tab_contents,Cincinnati_OH_United States,-84.51246,39.1014537
Albuquerque,NM,United States,Full Circle Books,,Bookstore,"books, merchandise, business",Advertisement,Lesbian Connection,8,1,June/July,1985,https://www.jstor.org/stable/community.28039209?seq=1#metadata_info_tab_contents,Albuquerque_NM_United States,-106.65099,35.0841034
Philadelphia,PA,United States,Giovanni's Room,,Bookstore,"large selection of lesbian/gay and feminist books, periodicals, records, etc.",Advertisement,Lesbian Connection,8,1,June/July,1985,https://www.jstor.org/stable/community.28039209?seq=1#metadata_info_tab_contents,Philadelphia_PA_United States,-75.163526,39.9527237
Kansas City,MO,United States,New Earth Bookstore,,Bookstore,"lesbian books and periodicals, women's music and feminist literature, mailorder catalog available",Advertisement,Lesbian Connection,8,1,June/July,1985,https://www.jstor.org/stable/community.28039209?seq=1#metadata_info_tab_contents,Kansas City_MO_United States,-94.578142,39.100105
East Lansing,MI,United States,Maxine Feldman,"Unitarian Church; A Woman's Bookstore, 225 E. Liberty; Hershelf Bookstore, 2 Highland, Highland Park; Womeself Bookstore, University Mall, East Lansing",Bookstore,"Announcement Title: ""A Woman's Bookstore."" Bookstore arranging venue at UU Church for lesbian comedian.",Advertisement,Lesbian Connections,2,6,November,1976,https://www.jstor.org/stable/community.28039169?seq=1#metadata_info_tab_contents,East Lansing_MI_United States,-84.472168,42.7320307
Ann Arbor,MI,United States,A Woman's Bookstore,The Gallery Circle,Bookstore,"Announcement Title: ""A Woman's Art Gallery."" Offering gallery space for women artists at bookshop.",Request,Lesbian Connections,2,6,November,1976,https://www.jstor.org/stable/community.28039169?seq=1#metadata_info_tab_contents,Ann Arbor_MI_United States,-83.731229,42.2681569
Phoenix,AZ,United States,Womansplace Bookstore,,Bookstore,"Title: ""Womansplace Bookstore.""",Advertisement,Lesbian Connections,4,1,August,1979,http://www.jstor.org/stable/community.28039188,Phoenix_AZ_United States,-112.07414,33.4484367
San Francisco,CA,United States,Old Wives Tales,,Bookstore,"Title: ""Travelling to San Francisco this Fall?"" Bookshop.",Advertisement,Lesbian Connections,4,1,August,1979,http://www.jstor.org/stable/community.28039188,San Francisco_CA_United States,-122.41991,37.7790262
Isla Vista,CA,United States,Womankind Bookstore,,Bookstore,"Title: ""Womankind Bookstore."" Feminist books and gift shop.",Advertisement,Lesbian Connections,4,1,August,1979,http://www.jstor.org/stable/community.28039188,Isla Vista_CA_United States,-119.85621,34.4115125
Cincinnati,OH,United States,Crazy Ladies Bookstore,,Bookstore,"Title: ""Cincinnati."" Bookstore and art.",Advertisement,Lesbian Connections,4,1,August,1979,http://www.jstor.org/stable/community.28039188,Cincinnati_OH_United States,-84.51246,39.1014537
Ithaca,NY,United States,Firebrand Books,,Bookstore,Donated books,Donation,Lesbian Connections,12,2,September,1989,https://www.jstor.org/stable/community.28039234,Ithaca_NY_United States,-76.548315,42.437072
Lakewood,OH,United States,Another State of Mind,,Bookstore,Donated video and book,Donation,Lesbian Connections,12,2,September,1989,https://www.jstor.org/stable/community.28039234,Lakewood_OH_United States,-81.798191,41.4819932
Columbiana,OH,United States,Tomorrow's World Bookservice,,Bookstore,Donated books,Donation,Lesbian Connections,12,2,September,1989,https://www.jstor.org/stable/community.28039234,Columbiana_OH_United States,-80.76486,40.7787016
Cincinnati,OH,United States,Crazy Ladies Bookstore,,Bookstore,Donated sweatshirt,Donation,Lesbian Connections,12,2,September,1989,https://www.jstor.org/stable/community.28039234,Cincinnati_OH_United States,-84.51246,39.1014537
Pittsburgh,PA,United States,Gertrude Stein Memorial Bookshop,,Bookstore,"Title: ""Gertrude Stein Memorial Bookshop."" Featuring woman-made books, etc.",Advertisement,Lesbian Connections,12,2,September,1989,https://www.jstor.org/stable/community.28039234,Pittsburgh_PA_United States,-79.990086,40.4416941
St. Petersburg,FL,United States,Brigit Books,,Bookstore,"Title: ""Brigit Books - Florida's."" Books, music, jewelry - also features bulletin board with local info.",Advertisement,Lesbian Connections,12,2,September,1989,https://www.jstor.org/stable/community.28039234,St. Petersburg_FL_United States,-82.669509,27.7703796
Lakewood,OH,United States,Another State of Mind,,Bookstore,"Title: ""Another State of Mind."" Gay/lesbian bookstore/gift shop.",Advertisement,Lesbian Connections,12,2,September,1989,https://www.jstor.org/stable/community.28039234,Lakewood_OH_United States,-81.798191,41.4819932
New Orleans,LA,United States,The Mystic Moon,,Bookstore,"Title: ""The Mystic Moon."" Feminist bookstore, open T-F",Advertisement,Lesbian Connections,12,2,September,1989,https://www.jstor.org/stable/community.28039234,New Orleans_LA_United States,-90.078213,29.9759983
Oakland,CA,United States,Mama Bears,,Bookstore,"Title: ""Mama Bears."" Bookstore, coffeehouse, gifts. Women's events - $1 for newsletter",Advertisement,Lesbian Connections,12,2,September,1989,https://www.jstor.org/stable/community.28039234,Oakland_CA_United States,-122.27136,37.8044557
Huntington Station,NY,United States,Womankind Books,,Bookstore,"Title: ""Free Lesbian Mail Order Catalog."" Mail order catalog w/books records, videos. Emphasizes discretion.",Advertisement,Lesbian Connections,12,2,September,1989,https://www.jstor.org/stable/community.28039234,Huntington Station_NY_United States,-73.411509,40.8534318
Columbus,OH,United States,Fan the Flames Feminist Bookstore,,Bookstore,"Title: ""Ohio's Oldest Women's Bookstore Does Mail Order!"" Bookstore with mail order catalog.",Advertisement,Lesbian Connections,12,2,September,1989,https://www.jstor.org/stable/community.28039234,Columbus_OH_United States,-83.000707,39.9622601
Baltimore,MD,United States,31st Street Bookstore Co-op,,Bookstore,"Title: ""Maryland's Only Feminist Bookstore."" Claims to be Maryland's only feminist bookstore.",Advertisement,Lesbian Connections,12,2,September,1989,https://www.jstor.org/stable/community.28039234,Baltimore_MD_United States,-76.610759,39.2908816
Northampton,MA,United States,Lunaria,,Bookstore,"Title: ""New, Used, And Rare Lesbian & Feminist Books and Music."" Mail-order bookstore",Advertisement,Lesbian Connections,12,2,September,1989,https://www.jstor.org/stable/community.28039234,Northampton_MA_United States,-72.631101,42.3178989
Indianapolis,IN,United States,Dreams & Swords,,Bookstore,"Title: ""Dreams & Swords."" Feminist family bookstore w/catalog.",Advertisement,Lesbian Connections,12,2,September,1989,https://www.jstor.org/stable/community.28039234,Indianapolis_IN_United States,-86.15835,39.7683331
East Lansing,MI,United States,Womanself Bookstore,University Mall,Bookstore,"Women's books, non-sexist children's books",Advertisement,Lesbian Connection,,Winter Supplement,December,1977,https://www.jstor.org/stable/community.28039179?seq=5,East Lansing_MI_United States,-84.472168,42.7320307
New Orleans,LA,United States,Atlantis distributors,,Bookstore,"Wholesale book distribution, lesbian, women, children's books",Advertisement,Lesbian Connection,,Winter Supplement,December,1977,https://www.jstor.org/stable/community.28039179?seq=6,New Orleans_LA_United States,-90.078213,29.9759983
Eugene,OR,United States,Amazon Reality,,Bookstore,"Non profit lesbian/feminist company, distributes literature, and music of female artists",Advertisement,Lesbian Connection,,Winter Supplement,December,1977,https://www.jstor.org/stable/community.28039179?seq=9,Eugene_OR_United States,-123.09505,44.0505054
Eugene,OR,United States,Northwest Matrix,,Bookstore,Book store,Advertisement,Lesbian Connection,,Winter Supplement,December,1977,https://www.jstor.org/stable/community.28039179?seq=9,Eugene_OR_United States,-123.09505,44.0505054
Grants Pass,OR,United States,WomanShare Books,,Bookstore,"Book ""Country Lesbians""",Advertisement,Lesbian Connection,,Winter Supplement,December,1977,https://www.jstor.org/stable/community.28039179?seq=9,Grants Pass_OR_United States,-123.32725,42.4393707
Chapel Hill,NC,United States,Lollipop Power Inc.,,Bookstore,"Non sexist, nonracist, children's picture books",Advertisement,Lesbian Connection,,Winter Supplement,December,1977,https://www.jstor.org/stable/community.28039179?seq=11,Chapel Hill_NC_United States,-79.05578,35.9131542
Toronto,Ontario,Canada,Toronto Women's Bookstore,,Bookstore,"Women authors, non-sexist children's books, womens merch",Advertisement,Lesbian Connection,,Winter Supplement,December,1977,https://www.jstor.org/stable/community.28039179?seq=12,Toronto_Ontario_Canada,-79.383935,43.6534817
Oakland,CA,United States,I.C.I A Womans Place Bookstore,,Bookstore,"Books for and by women, Children's books, lounge, library",Advertisement,Lesbian Connection,,Winter Supplement,December,1977,https://www.jstor.org/stable/community.28039179?seq=14,Oakland_CA_United States,-122.27136,37.8044557
Chicago,IL,United States,"Jane Addams Bookstore Inc,",,Bookstore,Downtown feminist bookstore,Advertisement,Lesbian Connection,,Winter Supplement,December,1982,https://www.jstor.org/stable/community.28039198?seq=4,Chicago_IL_United States,-87.624421,41.8755616
Milwaukee,WI,United States,Sister Moon,,Bookstore,"Lesbian Feminist bookstore, w/books, jewelry, records, t-shirts",Advertisement,Lesbian Connection,,Winter Supplement,December,1982,https://www.jstor.org/stable/community.28039198?seq=8,Milwaukee_WI_United States,-87.922497,43.0349931
Indianapolis,IN,United States,Dreams and Swords,,Bookstore,"Family bookstore, children's books,records, calendar",Advertisement,Lesbian Connection,,Winter Supplement,December,1982,https://www.jstor.org/stable/community.28039198?seq=11,Indianapolis_IN_United States,-86.15835,39.7683331
Hartford,CT,United States,Independent Woman Books,,Bookstore,"Mail order bookstore, old, rare, out of print lesbian literature",Advertisement,Lesbian Connection,,Winter Supplement,December,1982,https://www.jstor.org/stable/community.28039198?seq=13,Hartford_CT_United States,-72.690855,41.764582
Los Angeles,CA,United States,Sisterhood Bookstore,,Bookstore,Spring Catalog Section; offres women's books and cassettes.,Advertisement,Lesbian Connection,8,6,May/June,1986,https://www.jstor.org/stable/community.28039214,Los Angeles_CA_United States,-118.24277,34.0536909
Huntington Station,NY,United States,Womankind Books,,Bookstore,"Spring Catalog Section; Offering free lesbian book catalog, large inventory of lesbian books and music.",Advertisement,Lesbian Connection,8,6,May/June,1986,https://www.jstor.org/stable/community.28039214,Huntington Station_NY_United States,-73.411509,40.8534318
Philadelphia,PA,United States,Giovanni's Room,,Bookstore,"Spring Catalog Section; full page ad listing women's best sellers fiction and non-fiction with short descriptions of each book. Includes a book dealing with racism (THe Land of Look Behind by Michelle Cliff, and Lesbian Land ed by Joyce Cheney containing stories from 20 collectives.",Advertisement,Lesbian Connection,8,6,May/June,1986,https://www.jstor.org/stable/community.28039214,Philadelphia_PA_United States,-75.163526,39.9527237
Englewood,NJ,United States,Pandora Book Peddlers,,Bookstore,"Spring Catalog Section; Introduces Y.O.U.R. Feminist Book Club, lists feminist publishers.",Advertisement,Lesbian Connection,8,6,May/June,1986,https://www.jstor.org/stable/community.28039214,Englewood_NJ_United States,-73.972638,40.8928771
San Francisco,CA,United States,Old Wives Tales,,Bookstore,"Spring Catalog Section; Advertises feminist, 3rd world and children's books, periodicals and records.",Advertisement,Lesbian Connection,9,6,May/June,1987,https://www.jstor.org/stable/community.28039220,San Francisco_CA_United States,-122.41991,37.7790262
Minneapolis,MN,United States,Amazon Bookstore,,Bookstore,"Spring Catalog Section; Feminist books, periodicals, records, jewelry, crafts,",Advertisement,Lesbian Connection,9,6,May/June,1987,https://www.jstor.org/stable/community.28039220,Minneapolis_MN_United States,-93.265469,44.9772995
Chicago,IL,United States,Women & Children First,,Bookstore,"Spring Catalog Section; lesbian, feminist and children's books.",Advertisement,Lesbian Connection,9,6,May/June,1987,https://www.jstor.org/stable/community.28039220,Chicago_IL_United States,-87.624421,41.8755616
Indianapolis,IN,United States,Dreams and Swords inc.,,Bookstore,"Spring Catalog Section; ""A feminist family bookstore,"" claims largest selection of lesbian and feminist books, records, and tabes in Midwest. Second address in Bloomington, IN.",Advertisement,Lesbian Connection,9,6,May/June,1987,https://www.jstor.org/stable/community.28039220,Indianapolis_IN_United States,-86.15835,39.7683331
Philadelphia,PA,United States,Giovanni's Room,,Bookstore,Spring Catalog Section; Advertises their 1987 Women's Best Sellers catalog.,Advertisement,Lesbian Connection,9,6,May/June,1987,https://www.jstor.org/stable/community.28039220,Philadelphia_PA_United States,-75.163526,39.9527237
Indianapolis,IN,United States,Dreams and Swords inc.,,Bookstore,"Spring Catalog Section; lesbian and feminist books, records, tapes, mail orders.",Advertisement,Lesbian Connection,10,6,May/June,1988,https://www.jstor.org/stable/community.28039226,Indianapolis_IN_United States,-86.15835,39.7683331
Austin,TX,United States,Banned Books,"Antoinette Azolakov, Tee Corrine",Bookstore,Spring Catalog Section; Specifically advertising Skiptrace and Cass and the Stone Butch by Antoinette Azolakov and Dreams of the Woman Who Loved Sex by Tee Corinne,Advertisement,Lesbian Connection,10,6,May/June,1988,https://www.jstor.org/stable/community.28039226,Austin_TX_United States,-97.7437,30.2711286
Cincinnati,OH,United States,The Crazy Ladies Bookstore,,Bookstore,"Spring Catalog Section; T-shirts, golf shirts, sweat shirts.",Advertisement,Lesbian Connection,10,6,May/June,1988,https://www.jstor.org/stable/community.28039226,Cincinnati_OH_United States,-84.51246,39.1014537
Ventura,CA,United States,SanSu,,Bookstore,"Spring Catalog Section; Books, music, games etc supporting women's creativity",Advertisement,Lesbian Connection,11,6,May/June,1989,https://www.jstor.org/stable/community.28039232,Ventura_CA_United States,-119.07794,34.4458248
Indianapolis,IN,United States,Dreams and Swords inc.,,Bookstore,"Spring Catalog Section; Lesbian and feminist books, records, tapes, mail orders.",Advertisement,Lesbian Connection,11,6,May/June,1989,https://www.jstor.org/stable/community.28039232,Indianapolis_IN_United States,-86.15835,39.7683331
Bloomington,IN,United States,Aquarius Books,,Bookstore,Spring Catalog Section; Feminist bookstore.,Advertisement,Lesbian Connection,11,6,May/June,1989,https://www.jstor.org/stable/community.28039232,Bloomington_IN_United States,-86.534288,39.1670396
Groton,CT,United States,Independent Woman Books,Kathleen S. Koch,Bookstore,"Spring Catalog Section; lesbian and feminist books, old, rare and out of print",Advertisement,Lesbian Connection,7,2,June/July,1984,https://www.jstor.org/stable/community.28039205,Groton_CT_United States,-72.0762,41.3501598
Toronto,,Canada,Toronto Women's Bookstore,,Bookstore,Spring Catalog Section;,Advertisement,Lesbian Connection,7,2,June/July,1984,https://www.jstor.org/stable/community.28039205,Toronto__Canada,-100.27407,25.7933245
Indianapolis,IN,United States,Dreams and Swords inc.,,Bookstore,"Spring Catalog Section; Feminist and lesbian books, tapes, records.",Advertisement,Lesbian Connection,7,2,June/July,1984,https://www.jstor.org/stable/community.28039205,Indianapolis_IN_United States,-86.15835,39.7683331
New York,NY,United States,Womanbooks,,Bookstore,"Spring Catalog Section; Woman authored books, 6000 titles, mail orders.",Advertisement,Lesbian Connection,7,2,June/July,1984,https://www.jstor.org/stable/community.28039205,New York_NY_United States,-74.006015,40.7127281
Lakewood,OH,United States,Another State of Mind,,Bookstore,Gay/lesbian book and gifts store,Advertisement,Lesbian Connection,9,6,May/June,1987,https://www.jstor.org/stable/community.28039220,Lakewood_OH_United States,-81.798191,41.4819932
Philadelphia,PA,United States,Giovanni's Room,,Bookstore,"Lesbian, feminist and gay books etc, also foreign language.",Advertisement,Lesbian Connection,9,6,May/June,1987,https://www.jstor.org/stable/community.28039220,Philadelphia_PA_United States,-75.163526,39.9527237
Huntington Station,NY,United States,Womankind Books,,Bookstore,"Free lesbian mail order catalog for over 300 books, records and videos.",Advertisement,Lesbian Connection,9,6,May/June,1987,https://www.jstor.org/stable/community.28039220,Huntington Station_NY_United States,-73.411509,40.8534318
Columbus,OH,United States,Fan The Flames Feminist Bookstore,,Bookstore,"Ohio's oldest women's bookstore, free catalog, mail orders.",Advertisement,Lesbian Connection,9,6,May/June,1987,https://www.jstor.org/stable/community.28039220,Columbus_OH_United States,-83.000707,39.9622601
New Orleans,LA,United States,The Mystic Moon,,Bookstore,Bits & Pieces; New Orleans's first lesbian owned feminist bookstore,Advertisement,Lesbian Connection,11,6,May/June,1989,https://www.jstor.org/stable/community.28039232,New Orleans_LA_United States,-90.078213,29.9759983
Columbus,OH,United States,Fan the Flames Feminist Bookstore,,Bookstore,Bits & Pieces; large selection of women's books and music.,Directory,Lesbian Connection,11,6,May/June,1989,https://www.jstor.org/stable/community.28039232,Columbus_OH_United States,-83.000707,39.9622601
Portland,OR,United States,A Womon's Place Bookstore,,Bookstore,Bits & Pieces;,Directory,Lesbian Connection,11,6,May/June,1989,https://www.jstor.org/stable/community.28039232,Portland_OR_United States,-122.67419,45.5202471
Lakewood,OH,United States,Another State of Mind,,Bookstore,A Gay/Lesbian book/gift store.,Advertisement,Lesbian Connection,11,6,May/June,1989,https://www.jstor.org/stable/community.28039232,Lakewood_OH_United States,-81.798191,41.4819932
New Orleans,LA,United States,The Mystic Moon,,Bookstore,Feminist bookstore.,Advertisement,Lesbian Connection,11,6,May/June,1989,https://www.jstor.org/stable/community.28039232,New Orleans_LA_United States,-90.078213,29.9759983
Houston,TX,United States,Inklings,Annise Parker and Pokey Anderson (owners),Bookstore,"New bookstore, lesbian, feminist, gay books, magazines, music, etc. Sections on: recovery, Third World and Native Americans, kids.",Advertisement,Lesbian Connection,11,6,May/June,1989,https://www.jstor.org/stable/community.28039232,Houston_TX_United States,-95.367697,29.7589382
Jacksonville,FL,United States,Shades of Lavender,,Bookstore,Lesbian/gay bookstore.,Advertisement,Lesbian Connection,11,6,May/June,1989,https://www.jstor.org/stable/community.28039232,Jacksonville_FL_United States,-81.655651,30.3321838
Huntington Station,NY,United States,Womankind Books,,Bookstore,"Free lesbian mail order catalog for books, records, videos, mailed discreetly.",Advertisement,Lesbian Connection,11,6,May/June,1989,https://www.jstor.org/stable/community.28039232,Huntington Station_NY_United States,-73.411509,40.8534318
Columbus,OH,United States,Fan the Flames Feminist Bookstore,,Bookstore,"Mail order, free catalog from ohio's oldest women's bookstore.",Advertisement,Lesbian Connection,11,6,May/June,1989,https://www.jstor.org/stable/community.28039232,Columbus_OH_United States,-83.000707,39.9622601
Bloomington,IL,United States,Aquarius Books and Bookmobile,,Bookstore,Free feminist lesbian catalog.,Advertisement,Lesbian Connection,11,6,May/June,1989,https://www.jstor.org/stable/community.28039232,Bloomington_IL_United States,-88.993915,40.4797828
Northampton,MA,United States,LUNARIA,,Bookstore,"New, used, and rare feminist books and music, out of print searches, mail service.",Advertisement,Lesbian Connection,11,6,May/June,1989,https://www.jstor.org/stable/community.28039232,Northampton_MA_United States,-72.631101,42.3178989
Coulterville,CA,United States,Blue Heron Connections,,Bookstore,women's books by mail.,Advertisement,Lesbian Connection,11,6,May/June,1989,https://www.jstor.org/stable/community.28039232,Coulterville_CA_United States,-120.19797,37.710486
Chicago,IL,United States,Women & Children First,,Bookstore,"Lesbian, feminist and children's books and records",Advertisement,Lesbian Connection,9,3,December,1986,https://www.jstor.org/stable/community.28039217?seq=3,Chicago_IL_United States,-87.624421,41.8755616
Ithaca,NY,United States,Firebrand Books,,Bookstore,Living as a lesbian; nothing lukewarm; strong poetry,Advertisement,Lesbian Connection,9,3,December,1986,https://www.jstor.org/stable/community.28039217?seq=4,Ithaca_NY_United States,-76.548315,42.437072
Philadelphia,PA,United States,Giovanni's Room,,Bookstore,"Lesbian, Feminist, and gay books, periodicals, records, etc.",Advertisement,Lesbian Connection,9,3,December,1986,https://www.jstor.org/stable/community.28039217?seq=4,Philadelphia_PA_United States,-75.163526,39.9527237
Phoenix,AZ,United States,Humanspace Books,,Bookstore,"for feminists, gay men, lesbians, witches, kids, etc.",Advertisement,Lesbian Connection,9,3,December,1986,https://www.jstor.org/stable/community.28039217?seq=4,Phoenix_AZ_United States,-112.07414,33.4484367
Huntington Station,NY,United States,Womankind Books,,Bookstore,Free lesbian book and record catalog,Advertisement,Lesbian Connection,9,3,December,1986,https://www.jstor.org/stable/community.28039217?seq=4,Huntington Station_NY_United States,-73.411509,40.8534318
Columbus,OH,United States,Fan The Flames Feminist Bookstore,,Bookstore,Ohio's oldest women's bookstore does mail order,Advertisement,Lesbian Connection,9,3,December,1986,https://www.jstor.org/stable/community.28039217?seq=4,Columbus_OH_United States,-83.000707,39.9622601
Lawrence,KS,United States,Spinsters Books & Webbery,,Bookstore,Womyn's Spirituality and Lesbian-Feminist Mail Order Catalog,Advertisement,Lesbian Connection,9,3,December,1986,https://www.jstor.org/stable/community.28039217?seq=4,Lawrence_KS_United States,-95.23595,38.9719384
Ithaca,NY,United States,Firebrand Books,,Bookstore,Advertising book of cartoons by Alison Bechdel,Advertisement,Lesbian Connection,9,3,December,1986,https://www.jstor.org/stable/community.28039217?seq=4,Ithaca_NY_United States,-76.548315,42.437072
Oakland,CA,United States,Diaspora Distribution,,Bookstore,ADvertisement for lesbian fiction and erotica by Jess Wells,Advertisement,Lesbian Connection,9,3,December,1986,https://www.jstor.org/stable/community.28039217?seq=5,Oakland_CA_United States,-122.27136,37.8044557
Little River,CA,United States,Tough Dove Books,,Bookstore,"Tarot Cards, Lesbian fiction, stories of women, 'free to women in prison'",Advertisement,Lesbian Connection,9,3,December,1986,https://www.jstor.org/stable/community.28039217?seq=13,Little River_CA_United States,-123.78835,39.2707318
Minneapolis,MN,United States,Amazon Bookstore,,Bookstore,FEminist books periodicals records jewelry crafts by women,Advertisement,Lesbian Connection,9,3,December,1986,https://www.jstor.org/stable/community.28039217?seq=16,Minneapolis_MN_United States,-93.265469,44.9772995
Englewood,NJ,United States,Pandora Book Peddlers,,Bookstore,"Advertising ""Y.O.U.R. [Your OPportunity for Unequaled Reading] Feminist Book Club",Advertisement,Lesbian Connection,9,3,December,1986,https://www.jstor.org/stable/community.28039217?seq=18,Englewood_NJ_United States,-73.972638,40.8928771
Indianapolis,IN,United States,Dreams and Swords,,Bookstore,Second store opened; Indiana's largest selection of lesbian adn feminist books,Advertisement,Lesbian Connection,9,3,December,1986,https://www.jstor.org/stable/community.28039217?seq=22,Indianapolis_IN_United States,-86.15835,39.7683331
Portland,OR,United States,A Woman's Place,,Bookstore,Feminist bookstore,Advertisement,Lesbian Connection,9,3,December,1986,https://www.jstor.org/stable/community.28039217?seq=24,Portland_OR_United States,-122.67419,45.5202471
Philadelphia,PA,United States,Giovanni's Room,,Bookstore,"Lesbian and feminist book sampler; example books of fiction; ""When youc all have yoru MasterCard or Visa card handy.""; two-page spread",Advertisement,Lesbian Connection,9,3,December,1986,https://www.jstor.org/stable/community.28039217?seq=26,Philadelphia_PA_United States,-75.163526,39.9527237
San Francisco,CA,United States,Old Wives Tales,,Bookstore,"""Write for our catalog; we mail books anywhere""",Advertisement,Lesbian Connection,9,3,December,1986,https://www.jstor.org/stable/community.28039217?seq=28,San Francisco_CA_United States,-122.41991,37.7790262
Oakland,CA,United States,Mama Bears,,Bookstore,Bookstore and coffeehouse,Advertisement,Lesbian Connection,9,3,December,1986,https://www.jstor.org/stable/community.28039217?seq=29,Oakland_CA_United States,-122.27136,37.8044557
Vancouver,BC,Canada,Little Sister's Book and Art Emporium,,Bookstore,Vancouver's only exclusively lesbian and gay bookstore was bombed in a homophobic attack.,Article,Lesbian Connection,10,6,May/June,1988,https://www.jstor.org/stable/community.28039226,Vancouver_BC_Canada,-123.11395,49.2608724
Eureka,CA,United States,Lizard Louise Books,,Bookstore,Bits & Pieces; Reopening as a book-ordering service.,Directory,Lesbian Connection,10,6,May/June,1988,https://www.jstor.org/stable/community.28039226,Eureka_CA_United States,-124.16737,40.7906871
Baltimore,MD,United States,31st St Bookstore,,Bookstore,"Bits & Pieces; Womin gathered together to purchase the bookstore, a feminist lesbian bookstore, now a co-op owned by 500 womin.",Directory,Lesbian Connection,10,6,May/June,1988,https://www.jstor.org/stable/community.28039226,Baltimore_MD_United States,-76.610759,39.2908816
Philadelphia,PA,United States,Giovanni's Room,,Bookstore,"Lesbian, feminist and gay books periodicals, records.",Advertisement,Lesbian Connection,10,6,May/June,1988,https://www.jstor.org/stable/community.28039226,Philadelphia_PA_United States,-75.163526,39.9527237
Lakewood,OH,United States,Another State of Mind,,Bookstore,,Advertisement,Lesbian Connection,10,6,May/June,1988,https://www.jstor.org/stable/community.28039226,Lakewood_OH_United States,-81.798191,41.4819932
Hempstead,NY,United States,Alternatives Corner Bookstore,,Bookstore,,Advertisement,Lesbian Connection,10,6,May/June,1988,https://www.jstor.org/stable/community.28039226,Hempstead_NY_United States,-73.619074,40.6736812
Phoenix,AZ,United States,"Humanspace Books, Inc",,Bookstore,"Lesbian, feminist, gay, new age, children's books.",Advertisement,Lesbian Connection,10,6,May/June,1988,https://www.jstor.org/stable/community.28039226,Phoenix_AZ_United States,-112.07414,33.4484367
Columbus,OH,United States,Fan the Flames Feminist Bookstore,,Bookstore,,Advertisement,Lesbian Connection,10,6,May/June,1988,https://www.jstor.org/stable/community.28039226,Columbus_OH_United States,-83.000707,39.9622601
Huntington Station,NY,United States,Womankind Books,,Bookstore,,Advertisement,Lesbian Connection,10,6,May/June,1988,https://www.jstor.org/stable/community.28039226,Huntington Station_NY_United States,-73.411509,40.8534318
Tempe,AZ,United States,Womansplace,,Bookstore,"Phoenix area's only feminist bookstore; ""I will happily send books to isolated lesbians""",Advertisement,Lesbian Connection,1,6,July,1975,https://www.jstor.org/stable/community.28039161?seq=24,Tempe_AZ_United States,-111.94001,33.4255056
East Lansing,MI,United States,Womanself,,Bookstore,feminist bookstore and women's craftshop,Advertisement,Lesbian Connection,1,6,July,1975,https://www.jstor.org/stable/community.28039161?seq=24,East Lansing_MI_United States,-84.472168,42.7320307
Huntington Station,NY,United States,Womankind Books,,Bookstore,mail order book catalog,Advertisement,Lesbian Connection,12,3,November,1989,https://www.jstor.org/stable/community.28039235?seq=10,Huntington Station_NY_United States,-73.411509,40.8534318
Redwood Valley,CA,United States,Earth Books,,Bookstore,"Meditation, book and audiocassette",Advertisement,Lesbian Connection,12,3,November,1989,https://www.jstor.org/stable/community.28039235?seq=13,Redwood Valley_CA_United States,-123.20445,39.2654449
Northampton,MA,United States,Lumaria Bookstore,,Bookstore,"Feminist bookstore, music, periodicals,",Advertisement,Lesbian Connection,12,3,November,1989,https://www.jstor.org/stable/community.28039235?seq=15,Northampton_MA_United States,-72.631101,42.3178989
Albuquerque,NM,United States,Full Circle Books,Feminist Bookstore Network,Bookstore,Local Women's bookstore,Advertisement,Lesbian Connection,12,3,November,1989,https://www.jstor.org/stable/community.28039235?seq=16,Albuquerque_NM_United States,-106.65099,35.0841034
Washington,DC,United States,Lammas Bookstore,Feminist Bookstore Network,Bookstore,Local Women's bookstore,Advertisement,Lesbian Connection,12,3,November,1989,https://www.jstor.org/stable/community.28039235?seq=16,Washington_DC_United States,-77.036543,38.8950368
Madison,WI,United States,A Room of One's Own,Feminist Bookstore Network,Bookstore,Local Women's bookstore,Advertisement,Lesbian Connection,12,3,November,1989,https://www.jstor.org/stable/community.28039235?seq=16,Madison_WI_United States,-89.383761,43.074761
New York,NY,United States,Judith's Room,Feminist Bookstore Network,Bookstore,Local Women's bookstore,Advertisement,Lesbian Connection,12,3,November,1989,https://www.jstor.org/stable/community.28039235?seq=16,New York_NY_United States,-74.006015,40.7127281
Cambridge,MA,United States,New Words Bookstore,Feminist Bookstore Network,Bookstore,Local Women's bookstore,Advertisement,Lesbian Connection,12,3,November,1989,https://www.jstor.org/stable/community.28039235?seq=16,Cambridge_MA_United States,-71.105616,42.3750997
Minneapolis,MN,United States,Amazon Bookstore,Feminist Bookstore Network,Bookstore,Local Women's bookstore,Advertisement,Lesbian Connection,12,3,November,1989,https://www.jstor.org/stable/community.28039235?seq=16,Minneapolis_MN_United States,-93.265469,44.9772995
Albuquerque,NM,United States,Sonia Johnson,,Bookstore,"Books and tapes ""feminist anarchy""",Advertisement,Lesbian Connection,12,3,November,1989,https://www.jstor.org/stable/community.28039235?seq=16,Albuquerque_NM_United States,-106.65099,35.0841034
Minneapolis,MN,United States,Amazon Bookstore,,Bookstore,"Feminist Bookstore, music, videos, gifts, tshirts",Advertisement,Lesbian Connection,12,3,November,1989,https://www.jstor.org/stable/community.28039235?seq=18,Minneapolis_MN_United States,-93.265469,44.9772995
Baltimore,MD,United States,31st Street Bookstore Cooperative,,Bookstore,"Feminist Bookstore, Community owned and operated, multicultural children's books",Advertisement,Lesbian Connection,12,3,November,1989,https://www.jstor.org/stable/community.28039235?seq=19,Baltimore_MD_United States,-76.610759,39.2908816
Beloit,WI,United States,A Different World Bookstore,,Bookstore,"Women's and children's books, book signing for Katherine V. Forrest, gift, and art",Advertisement,Lesbian Connection,12,3,November,1989,https://www.jstor.org/stable/community.28039235?seq=20,Beloit_WI_United States,-89.031784,42.5083272
Indianapolis,IN,United States,Dreams and Swords,,Bookstore,"Lesbian and feminist books, records and tapes",Advertisement,Lesbian Connection,12,3,November,1989,https://www.jstor.org/stable/community.28039235?seq=23,Indianapolis_IN_United States,-86.15835,39.7683331
Albuquerque,NM,United States,Full Circle Books,,Bookstore,"Catalog of helpful books, 'surviving childhood sexual assault'",Advertisement,Lesbian Connection,12,3,November,1989,https://www.jstor.org/stable/community.28039235?seq=24,Albuquerque_NM_United States,-106.65099,35.0841034
Philadelphia,PA,United States,Giovanni's Room,,Bookstore,"List of new lesbian and feminist books, fiction, nonfiction, art, gifts",Advertisement,Lesbian Connection,12,3,November,1989,https://www.jstor.org/stable/community.28039235?seq=28,Philadelphia_PA_United States,-75.163526,39.9527237
Gulfport,MS,United States,Southern Wild Sisters,,Bookstore,"pendant, earrings, fundraising for Gulf Coast Women's Festival",Advertisement,Lesbian Connection,12,3,November,1989,https://www.jstor.org/stable/community.28039235?seq=34,Gulfport_MS_United States,-89.092816,30.3674198
Washington,DC,United States,Lammas Books,,Bookstore,lesbian books; music,Advertisement,Lesbian Connection,8,6,May/June,1986,https://www.jstor.org/stable/community.28039214,Washington_DC_United States,-77.036543,38.8950368
Chicago,IL,United States,Women & Children First,,Bookstore,"music; books; lesbian, feminist, and children; mail order",Advertisement,Lesbian Connection,8,6,May/June,1986,https://www.jstor.org/stable/community.28039214,Chicago_IL_United States,-87.624421,41.8755616
Denver,CO,United States,The Book Garden,,Bookstore,music; books; merchandise,Advertisement,Lesbian Connection,8,6,May/June,1986,https://www.jstor.org/stable/community.28039214,Denver_CO_United States,-104.98486,39.7392364
Huntington Station,NY,United States,Womankind Books,,Bookstore,album; books; mail order,Advertisement,Lesbian Connection,8,6,May/June,1986,https://www.jstor.org/stable/community.28039214,Huntington Station_NY_United States,-73.411509,40.8534318
Kalamazoo,MI,United States,Pandora-Womyn's Bookstore,,Bookstore,,Advertisement,Lesbian Connection,8,6,May/June,1986,https://www.jstor.org/stable/community.28039214,Kalamazoo_MI_United States,-85.587229,42.291707
Eugene,OR,United States,Mother Kali's Books,,Bookstore,"Music, merchandise, book club, mail order",Advertisement,Lesbian Connection,8,6,May/June,1986,https://www.jstor.org/stable/community.28039214,Eugene_OR_United States,-123.09505,44.0505054
Philadelphia,PA,United States,Giovanni's Room,,Bookstore,"Music, books",Advertisement,Lesbian Connection,8,6,May/June,1986,https://www.jstor.org/stable/community.28039214,Philadelphia_PA_United States,-75.163526,39.9527237
Phoenix,AZ,United States,Humanspace Books,,Bookstore,,Advertisement,Lesbian Connection,8,6,May/June,1986,https://www.jstor.org/stable/community.28039214,Phoenix_AZ_United States,-112.07414,33.4484367
Lawrence,KS,United States,Spinsters Books & Webbery,,Bookstore,"resource center, community space, Lesbian Tea House events weekly",Advertisement,Lesbian Connection,8,6,May/June,1986,https://www.jstor.org/stable/community.28039214,Lawrence_KS_United States,-95.23595,38.9719384
Oakland,CA,United States,Battleaxe,,Bookstore,mail-in orders only,Advertisement,Lesbian Connection,8,6,May/June,1986,https://www.jstor.org/stable/community.28039214,Oakland_CA_United States,-122.27136,37.8044557
Chicago,IL,United States,Jane Addams Bookstore,,Bookstore,"Bookstore ad with a list of recommended titles, Keywords: witchcraft, sexuality, feminism, love, mental health, women of color, bookstore, women authors, spirituality",Advertisement,Lesbian Connection,Winter Supplement,Winter Supplement,December,1978,https://www.jstor.org/stable/community.28039187?seq=3,Chicago_IL_United States,-87.624421,41.8755616
Bridgeport,CT,United States,Blood Root,,Bookstore,"Ad for feminist vegetarian restaurant and bookstore logo is sketch of flowers with roots, has hours listed, and has a women only night. Key words: feminist, women only, vegetarian, restaurant",Advertisement,Lesbian Connection,Winter Supplement,Winter Supplement,December,1978,https://www.jstor.org/stable/community.28039187?seq=6,Bridgeport_CT_United States,-73.204835,41.1670412
Toronto,Ontario,Canada,Toronto Women's Bookstore,,Bookstore,"Ad for womens bookstore, shows small map of cross streets and description of goods. Keywords: Bookstore, women authors, children's books",Advertisement,Lesbian Connection,Winter Supplement,Winter Supplement,December,1978,https://www.jstor.org/stable/community.28039187?seq=10,Toronto_Ontario_Canada,-79.383935,43.6534817
Stanton,KY,United States,"N/A ""two lesbians carve bowls and spoons from wood, make gatehooks and drawer handles by blacksmithing, and make moccasins from tire soles""",,Business,crafts; blacksmith; woodwork,Advertisement,Lesbian Connection,1,4,March,1975,https://www.jstor.org/stable/community.28039159?seq=1#metadata_info_tab_contents,Stanton_KY_United States,-83.858253,37.8456373
Tucson,AZ,United States,Milkyway,,Business,apparel; houseware; handweaving; textiles,Advertisement,Lesbian Connection,3,6,December,1977,https://www.jstor.org/stable/pdf/community.28039178.pdf?refreqid=excelsior%3A804bdd737db80c748974394df88a950f,Tucson_AZ_United States,-110.97485,32.2228765
Oakland,CA,United States,Womonworks,,Business,merchandise; feminist bookplates; lesbian symbolism,Advertisement,Lesbian Connection,3,6,December,1977,https://www.jstor.org/stable/pdf/community.28039178.pdf?refreqid=excelsior%3A7a54eb49ecfcf11b2aa06ac9daf6a8b18,Oakland_CA_United States,-122.27136,37.8044557
Los Angeles,CA,United States,Annu Unlimited,,Business,merchandise; lesbian photo note cards,Advertisement,Lesbian Connection,3,6,December,1977,https://www.jstor.org/stable/pdf/community.28039178.pdf?refreqid=excelsior%3A804bdd737db80c748974394df88a950f,Los Angeles_CA_United States,-118.24277,34.0536909
Venice,CA,United States,The Feminist Wicca,,Business,spirituality; Wicca; merchandise; matriarchal spiritual center,Advertisement,Lesbian Connection,3,6,December,1977,https://www.jstor.org/stable/pdf/community.28039178.pdf?refreqid=excelsior%3A7a54eb49ecfcf11b2aa06ac9daf6a8b8,Venice_CA_United States,-118.46689,33.995044
Los Angeles,CA,United States,Feminist Horizons,,Business,women owned and run; feminist gift store; jewelry; apparel; vibrators,Advertisement,Lesbian Connection,3,6,December,1977,https://www.jstor.org/stable/pdf/community.28039178.pdf?refreqid=excelsior%3A7a54eb49ecfcf11b2aa06ac9daf6a8b8,Los Angeles_CA_United States,-118.24277,34.0536909
Los Angeles,CA,United States,Iris Films,,Business,"film; art; sells and rents films, including ""In the Best Interests of the Children"" from Iris Films about lesbian mothers and child custody cases",Advertisement,Lesbian Connection,3,6,December,1977,https://www.jstor.org/stable/pdf/community.28039178.pdf?refreqid=excelsior%3A7a54eb49ecfcf11b2aa06ac9daf6a8b8,Los Angeles_CA_United States,-118.24277,34.0536909
Boulder,CO,United States,Silver Crescent,,Business,jewelry; merchandise; gifts,Advertisement,Lesbian Connection,3,6,December,1977,https://www.jstor.org/stable/pdf/community.28039178.pdf?refreqid=excelsior%3A7a54eb49ecfcf11b2aa06ac9daf6a8b16,Boulder_CO_United States,-105.27024,40.0154155
Cos Cob,CT,United States,L. Murphy,,Business,bumper stickers; custom; merchandise,Advertisement,Lesbian Connection,3,6,December,1977,https://www.jstor.org/stable/pdf/community.28039178.pdf?refreqid=excelsior%3A804bdd737db80c748974394df88a950f,Cos Cob_CT_United States,-73.59957,41.0334305
Bridgeport,CT,United States,Bloodroot,,Business,restaurant; vegetarian food; coffeehouse; women only nights; books; records; feminist,Advertisement,Lesbian Connection,3,6,December,1977,https://www.jstor.org/stable/pdf/community.28039178.pdf?refreqid=excelsior%3A7a54eb49ecfcf11b2aa06ac9daf6a8b8,Bridgeport_CT_United States,-73.204835,41.1670412
New Orleans,LA,United States,PAS Studio,,Business,apparel; woman-run; merchandise; gifts,Advertisement,Lesbian Connection,3,6,December,1977,https://www.jstor.org/stable/pdf/community.28039178.pdf?refreqid=excelsior%3A804bdd737db80c748974394df88a950f,New Orleans_LA_United States,-90.078213,29.9759983
Hatfield,MA,United States,Greasy Gorgon Garage,,Business,Lesbian-run mechanics garage; business; mechanic; training,Request,Lesbian Connection,3,6,December,1977,https://www.jstor.org/stable/pdf/community.28039178.pdf?refreqid=excelsior%3A804bdd737db80c748974394df88a950f,Hatfield_MA_United States,-72.617506,42.3895027
Northampton,MA,United States,Old Lady Blue Jeans,Linda Sheara (musician),Business,lesbian business; music; records,Advertisement,Lesbian Connection,3,6,December,1977,https://www.jstor.org/stable/pdf/community.28039178.pdf?refreqid=excelsior%3A7a54eb49ecfcf11b2aa06ac9daf6a8b21,Northampton_MA_United States,-72.631101,42.3178989
Stonington,ME,United States,Wise Women Enterprises,Urana Records label,Business,"advertising for artists Willie Tyson, Kay Gardner, Casse Culver; apparel; music; records",Advertisement,Lesbian Connection,3,6,December,1977,https://www.jstor.org/stable/pdf/community.28039178.pdf?refreqid=excelsior%3A7a54eb49ecfcf11b2aa06ac9daf6a8b22,Stonington_ME_United States,-68.667297,44.156593
New York,NY,United States,Sappho Graphics,,Business,merchandise; feminist note cards; textiles; houseware,Advertisement,Lesbian Connection,3,6,December,1977,https://www.jstor.org/stable/pdf/community.28039178.pdf?refreqid=excelsior%3A7a54eb49ecfcf11b2aa06ac9daf6a8b20,New York_NY_United States,-74.006015,40.7127281
Albany,NY,United States,Project #1,Alix Dobkin (musician),Business,albums from Germany available for sale; music,Advertisement,Lesbian Connection,3,6,December,1977,https://www.jstor.org/stable/pdf/community.28039178.pdf?refreqid=excelsior%3A804bdd737db80c748974394df88a950f,Albany_NY_United States,-73.754968,42.6511674
Lancaster,PA,United States,JRM Cooper,,Business,lesbian-feminist notecards; merchandise; gifts; holiday,Advertisement,Lesbian Connection,3,6,December,1977,https://www.jstor.org/stable/pdf/community.28039178.pdf?refreqid=excelsior%3A7a54eb49ecfcf11b2aa06ac9daf6a8b17,Lancaster_PA_United States,-76.305669,40.03813
Philadelphia,PA,United States,Brigantine & Dollar Mercantile Co.,Meg Brigantine,Business,merchandise; canvas bags; accessories,Advertisement,Lesbian Connection,3,6,December,1977,https://www.jstor.org/stable/pdf/community.28039178.pdf?refreqid=excelsior%3A7a54eb49ecfcf11b2aa06ac9daf6a8b19,Philadelphia_PA_United States,-75.163526,39.9527237
Seattle,WA,United States,Skysister Enamels,,Business,merchandise; apparel,Advertisement,Lesbian Connection,3,6,December,1977,https://www.jstor.org/stable/pdf/community.28039178.pdf?refreqid=excelsior%3A804bdd737db80c748974394df88a950f,Seattle_WA_United States,-122.33006,47.6038321
Washington,DC,United States,Women in Distribution,Gaia's Guide,Business,books; merchandise; advertising for distribution of Gaia's Guide; catalogs,Advertisement,Lesbian Connection,3,6,December,1977,https://www.jstor.org/stable/pdf/community.28039178.pdf?refreqid=excelsior%3A7a54eb49ecfcf11b2aa06ac9daf6a8b8,Washington_DC_United States,-77.036543,38.8950368
Mendocino,CA,United States,Vashte Doublex,,Business,"silk scarves and vests, cards; batik, handpainted; arts and crafts; merchandise",Advertisement,Lesbian Connection,6,1,December,1982,https://www.jstor.org/stable/pdf/community.28039197.pdf?refreqid=excelsior%3A36736269a300d90d9f9b201f149c5991,Mendocino_CA_United States,-123.41264,39.3176491
Pasadena,CA,United States,Feminist Horizons,,Business,"international feminist mail order catalog; merchandise, books, vibrators, jewelry, leather, etc.",Advertisement,Lesbian Connection,6,1,December,1982,https://www.jstor.org/stable/pdf/community.28039197.pdf?refreqid=excelsior%3A36736269a300d90d9f9b201f149c5991,Pasadena_CA_United States,-118.14448,34.1476452
Los Angeles,CA,United States,ADL,,Business,"advertising catalogue of gay/lesbian books, magazines, records",Advertisement,Lesbian Connection,6,1,December,1982,https://www.jstor.org/stable/pdf/community.28039197.pdf?refreqid=excelsior%3A36736269a300d90d9f9b201f149c5991,Los Angeles_CA_United States,-118.24277,34.0536909
Chicago,IL,United States,Chicago Women's Graphics Collective,,Business,"merchandise; posters on themes ranging from feminism, goddess to workers rights",Advertisement,Lesbian Connection,6,1,December,1982,https://www.jstor.org/stable/pdf/community.28039197.pdf?refreqid=excelsior%3A36736269a300d90d9f9b201f149c5991,Chicago_IL_United States,-87.624421,41.8755616
Chicago,IL,United States,LA Tyson,,Business,Astrologer offering readings in person or by mail; rates offered but no lesbian turned away for lack of money; sliding scale pricing,Advertisement,Lesbian Connection,6,1,December,1982,https://www.jstor.org/stable/pdf/community.28039197.pdf?refreqid=excelsior%3A36736269a300d90d9f9b201f149c5991,Chicago_IL_United States,-87.624421,41.8755616
Lansing,MI,United States,Lavender Plates,,Business,license plates; merchandise,Advertisement,Lesbian Connection,6,1,December,1982,https://www.jstor.org/stable/pdf/community.28039197.pdf?refreqid=excelsior%3A36736269a300d90d9f9b201f149c5991,Lansing_MI_United States,-84.555381,42.7337712
Goodland,MN,United States,Sistersilver,M'Lou Brubaker,Business,handcrafted jewelry; lesbian symbols; women's symbols; arts and crafts,Advertisement,Lesbian Connection,6,1,December,1982,https://www.jstor.org/stable/pdf/community.28039197.pdf?refreqid=excelsior%3A36736269a300d90d9f9b201f149c5991,Goodland_MN_United States,-93.13576,47.161884
Argyle,NY,United States,Spinster's Ink,,Business,quilt postcards and greeting cards; merchandise,Advertisement,Lesbian Connection,6,1,December,1982,https://www.jstor.org/stable/pdf/community.28039197.pdf?refreqid=excelsior%3A36736269a300d90d9f9b201f149c5991,Argyle_NY_United States,-73.491669,43.23795
Austin,TX,United States,Luz,,Business,"Arkansas quartz ""lesbian-selected"" crystals; merchandise",Advertisement,Lesbian Connection,6,1,December,1982,https://www.jstor.org/stable/pdf/community.28039197.pdf?refreqid=excelsior%3A36736269a300d90d9f9b201f149c5991,Austin_TX_United States,-97.7437,30.2711286
Seattle,WA,United States,WSE Productions,Dr. Laura Brown,Business,inspirational tapes by lesbian feminist psychologist Dr. Brown,Advertisement,Lesbian Connection,6,1,December,1982,https://www.jstor.org/stable/pdf/community.28039197.pdf?refreqid=excelsior%3A36736269a300d90d9f9b201f149c5991,Seattle_WA_United States,-122.33006,47.6038321
Redmond,WA,United States,Choice Centered Tarot,,Business,tarot set and course offered; tarot reading,Advertisement,Lesbian Connection,6,1,December,1982,https://www.jstor.org/stable/pdf/community.28039197.pdf?refreqid=excelsior%3A36736269a300d90d9f9b201f149c5991,Redmond_WA_United States,-122.12388,47.6694141
Richland Center,WI,United States,Jewelry for Womyn-LC,Miriam & Jaes,Business,"lesbian, goddess, feminist symbols in jewelry",Advertisement,Lesbian Connection,6,1,December,1982,https://www.jstor.org/stable/pdf/community.28039197.pdf?refreqid=excelsior%3A36736269a300d90d9f9b201f149c5991,Richland Center_WI_United States,-90.385404,43.3355111
Garberville,CA,United States,Woodrose Cafe,,Business,"recommended for lesbians traveling through; ""where the local dykes work and congregate""",Directory,Lesbian Connection,9,5,March,1987,https://www.jstor.org/stable/pdf/community.28039219.pdf?refreqid=excelsior%3Abdf301575c90c0a78707ca085ff6dc10,Garberville_CA_United States,-123.79614,40.100569
Cape Girardeau,MO,United States,Black Diamond Lounge,,Business,new lesbian bar on Independence and Henderson Streets,Directory,Lesbian Connection,9,5,March,1987,https://www.jstor.org/stable/pdf/community.28039219.pdf?refreqid=excelsior%3Abdf301575c90c0a78707ca085ff6dc10,Cape Girardeau_MO_United States,-89.523036,37.3034933
Cape Girardeau,MO,United States,The Other Side,,Business,new lesbian bar on N. Main St; shows,Directory,Lesbian Connection,9,5,March,1987,https://www.jstor.org/stable/pdf/community.28039219.pdf?refreqid=excelsior%3Abdf301575c90c0a78707ca085ff6dc10,Cape Girardeau_MO_United States,-89.523036,37.3034933
Woodstock,NY,United States,Wise Woman Center,,Business,herbal medicine/spirit healing,Advertisement,Lesbian Connection,9,5,March,1987,https://www.jstor.org/stable/pdf/community.28039219.pdf?refreqid=excelsior%3Abdf301575c90c0a78707ca085ff6dc10,Woodstock_NY_United States,-74.118249,42.0410578
New York,NY,United States,Eve's Garden,,Business,"sex toys, vibrators, lesbian erotica",Advertisement,Lesbian Connection,9,5,March,1987,https://www.jstor.org/stable/pdf/community.28039219.pdf?refreqid=excelsior%3Abdf301575c90c0a78707ca085ff6dc10,New York_NY_United States,-74.006015,40.7127281
Brimfield,MA,United States,Lizzie Brown,,Business,arts and crafts; jewelry,Advertisement,Lesbian Connection,9,5,March,1987,https://www.jstor.org/stable/pdf/community.28039219.pdf?refreqid=excelsior%3Abdf301575c90c0a78707ca085ff6dc10,Brimfield_MA_United States,-89.886498,40.838926
Flushing,NY,United States,Shoshana,,Business,"arts and crafts; photo postcards; ""women-oriented""",Advertisement,Lesbian Connection,9,5,March,1987,https://www.jstor.org/stable/pdf/community.28039219.pdf?refreqid=excelsior%3Abdf301575c90c0a78707ca085ff6dc10,Flushing_NY_United States,-73.817429,40.7654301
Louisville,KY,United States,Creations of a Sound Mind,,Business,note cards and writing papers; by and for women,Advertisement,Lesbian Connection,9,5,March,1987,https://www.jstor.org/stable/pdf/community.28039219.pdf?refreqid=excelsior%3Abdf301575c90c0a78707ca085ff6dc10,Louisville_KY_United States,-85.759407,38.2542376
Durham,NC,United States,Snake & Snake Production,,Business,arts and crafts; apparel; goddess imagery,Advertisement,Lesbian Connection,9,5,March,1987,https://www.jstor.org/stable/pdf/community.28039219.pdf?refreqid=excelsior%3Abdf301575c90c0a78707ca085ff6dc10,Durham_NC_United States,-78.901805,35.996653
Puunene,HI,United States,Gisella Designs,,Business,handpainted oversized shirts; apparel,Advertisement,Lesbian Connection,9,5,March,1987,https://www.jstor.org/stable/pdf/community.28039219.pdf?refreqid=excelsior%3Abdf301575c90c0a78707ca085ff6dc10,Puunene_HI_United States,-155.49578,19.6962949
Leverett,MA,United States,Medusa Graphics,,Business,tarot set,Advertisement,Lesbian Connection,9,5,March,1987,https://www.jstor.org/stable/pdf/community.28039219.pdf?refreqid=excelsior%3Abdf301575c90c0a78707ca085ff6dc10,Leverett_MA_United States,-72.487091,42.473731
Bridgeport,CT,United States,Liz Seaborn,,Business,"vests and bags; ""warm and sensuous outerwear""; labyris design",Advertisement,Lesbian Connection,9,5,March,1987,https://www.jstor.org/stable/pdf/community.28039219.pdf?refreqid=excelsior%3Abdf301575c90c0a78707ca085ff6dc10,Bridgeport_CT_United States,-73.204835,41.1670412
Graton,CA,United States,Jane Sipe,,Business,jewelry; ancient mythological and spiritual symbols,Advertisement,Lesbian Connection,9,5,March,1987,https://www.jstor.org/stable/pdf/community.28039219.pdf?refreqid=excelsior%3Abdf301575c90c0a78707ca085ff6dc10,Graton_CA_United States,-122.8657,38.4386185
Rockport,ME,United States,Avena Botanicals,,Business,"medicinal herbs; ritually gathered from ""our yoni shaped garden""; health and beauty",Advertisement,Lesbian Connection,9,5,March,1987,https://www.jstor.org/stable/pdf/community.28039219.pdf?refreqid=excelsior%3Abdf301575c90c0a78707ca085ff6dc10,Rockport_ME_United States,-69.076149,44.1845236
Malden,MA,United States,Woodsounds,Karla Beatty,Business,handmade wooden runes; woodwork; arts and crafts,Advertisement,Lesbian Connection,9,5,March,1987,https://www.jstor.org/stable/pdf/community.28039219.pdf?refreqid=excelsior%3Abdf301575c90c0a78707ca085ff6dc10,Malden_MA_United States,-71.066163,42.4250964
Unicoi,TN,United States,Lavender Flame,,Business,candles; arts and crafts; merchandise,Advertisement,Lesbian Connection,9,5,March,1987,https://www.jstor.org/stable/pdf/community.28039219.pdf?refreqid=excelsior%3Abdf301575c90c0a78707ca085ff6dc10,Unicoi_TN_United States,-82.444068,36.1072175
Northampton,MA,United States,L Keith,,Business,"""clothes for fat dykes""; merchandise",Advertisement,Lesbian Connection,9,5,March,1987,https://www.jstor.org/stable/pdf/community.28039219.pdf?refreqid=excelsior%3Abdf301575c90c0a78707ca085ff6dc10,Northampton_MA_United States,-72.631101,42.3178989
City Island,NY,United States,Ceramics...and more...,,Business,"pottery, sculpture, jewelry; clayworks; arts and crafts",Advertisement,Lesbian Connection,9,5,March,1987,https://www.jstor.org/stable/pdf/community.28039219.pdf?refreqid=excelsior%3Abdf301575c90c0a78707ca085ff6dc10,City Island_NY_United States,-73.78643,40.8474333
Tucson,AZ,United States,Sources Unlimited,Carol Rose,Business,"referral service for the lesbian/gay community, by phone or mail; bits & pieces section",Directory,Lesbian Connection,8,1,June/July,1985,https://www.jstor.org/stable/community.28039209?seq=1#metadata_info_tab_contents,Tucson_AZ_United States,-110.97485,32.2228765
Houston,TX,United States,Hazelwitch Productions,,Business,lesbian production company; media; bits & pieces section; no address or phone number given,Directory,Lesbian Connection,8,1,June/July,1985,https://www.jstor.org/stable/community.28039209?seq=1#metadata_info_tab_contents,Houston_TX_United States,-95.367697,29.7589382
Unger,WV,United States,Greenstalk Woodworks,Rural Women's Productions,Business,"Ruth Siegel is contact name for PO Box; woman owned and operated woodworking business, Rural Women's Productions is dedicated to bringing grassroots women musicians to perform for all-women audiences in rural areas; bits & pieces section",Directory,Lesbian Connection,8,1,June/July,1985,https://www.jstor.org/stable/community.28039209?seq=1#metadata_info_tab_contents,Unger_WV_United States,-78.253894,39.4367646
Willow,NY,United States,Summer Crystal Retreats w/ Tysche,,Business,"travel retreat; camping, meals",Advertisement,Lesbian Connection,8,1,June/July,1985,https://www.jstor.org/stable/community.28039209?seq=1#metadata_info_tab_contents,Willow_NY_United States,-74.227923,42.0764796
Boca Grande,FL,United States,Whelk Women,Lynda Suzanne & Carol Barron,Business,"Travel business; sailing lessons; explore islands; travel lodging, ""camping, remote inn""",Advertisement,Lesbian Connection,8,1,June/July,1985,https://www.jstor.org/stable/community.28039209?seq=1#metadata_info_tab_contents,Boca Grande_FL_United States,-82.262039,26.7489586
Oakland,CA,United States,Mama Bears,,Business,"Coffeehouse, gallery, bookstore, records, merchandise, etc.",Advertisement,Lesbian Connection,8,1,June/July,1985,https://www.jstor.org/stable/community.28039209?seq=1#metadata_info_tab_contents,Oakland_CA_United States,-122.27136,37.8044557
New York,NY,United States,Eve's Garden,,Business,sexuality boutique by women for women; sex toys and merchandise,Advertisement,Lesbian Connection,8,1,June/July,1985,https://www.jstor.org/stable/community.28039209?seq=1#metadata_info_tab_contents,New York_NY_United States,-74.006015,40.7127281
New York,NY,United States,Eve's Garden,,Business,sexuality boutique by women for women; sex toys and merchandise; included as written and visual advertisement in same issue,Advertisement,Lesbian Connection,8,1,June/July,1985,https://www.jstor.org/stable/community.28039209?seq=1#metadata_info_tab_contents,New York_NY_United States,-74.006015,40.7127281
Austin,TX,United States,Color Blind T-Shirts,,Business,different design images advertised,Advertisement,Lesbian Connection,8,1,June/July,1985,https://www.jstor.org/stable/community.28039209?seq=1#metadata_info_tab_contents,Austin_TX_United States,-97.7437,30.2711286
New York,NY,United States,Meadowsweet Herbal Apothecary,,Business,"herbs, oils, tinctures, ointment, Chinese medicine, homeopathic medicine",Advertisement,Lesbian Connection,8,1,June/July,1985,https://www.jstor.org/stable/community.28039209?seq=1#metadata_info_tab_contents,New York_NY_United States,-74.006015,40.7127281
Topanga,CA,United States,Remember Feminist Wicce,,Business,"books on the goddess, the craft, tarot, healing, psychic development, tarot cards, and all witchcraft supplies",Advertisement,Lesbian Connection,8,1,June/July,1985,https://www.jstor.org/stable/community.28039209?seq=1#metadata_info_tab_contents,Topanga_CA_United States,-118.59725,34.0908579
Columbus,OH,United States,Madwomyn Movers,,Business,lesbian long distance moving company,Advertisement,Lesbian Connection,8,1,June/July,1985,https://www.jstor.org/stable/community.28039209?seq=1#metadata_info_tab_contents,Columbus_OH_United States,-83.000707,39.9622601
Houston,TX,United States,Hazelwitch Productions,,Business,"advertising mailing list to hear about lesbian concerts, comedians, poets, workshops",Advertisement,Lesbian Connection,8,1,June/July,1985,https://www.jstor.org/stable/community.28039209?seq=1#metadata_info_tab_contents,Houston_TX_United States,-95.367697,29.7589382
Minneapolis,MN,United States,Birthprints,,Business,detailed interpretations of an individual child (or woman's) horoscope; gifts,Advertisement,Lesbian Connection,8,1,June/July,1985,https://www.jstor.org/stable/community.28039209?seq=1#metadata_info_tab_contents,Minneapolis_MN_United States,-93.265469,44.9772995
New York,NY,United States,Ages of Woman Products,,Business,"lesbian symbols and images, spiritual images on rubber stamps, notecards, postcards; feminist and anti-nuke stickers, political buttons; gifts",Advertisement,Lesbian Connection,8,1,June/July,1985,https://www.jstor.org/stable/community.28039209?seq=1#metadata_info_tab_contents,New York_NY_United States,-74.006015,40.7127281
Gainesville,FL,United States,Shooting Stars/Georg,,Business,"amulet bag, crystals, arts & crafts",Advertisement,Lesbian Connection,8,1,June/July,1985,https://www.jstor.org/stable/community.28039209?seq=1#metadata_info_tab_contents,Gainesville_FL_United States,-82.324985,29.6519684
Benicia,CA,United States,Amazon Earthworks,,Business,handmade pottery; matrarchal images; arts & crafts,Advertisement,Lesbian Connection,8,1,June/July,1985,https://www.jstor.org/stable/community.28039209?seq=1#metadata_info_tab_contents,Benicia_CA_United States,-122.15858,38.049365
Berkeley,CA,United States,Tea for Two Shirts,,Business,"apparel; feminist imagery, lesbian power, women working and in trades, goddess",Advertisement,Lesbian Connection,8,1,June/July,1985,https://www.jstor.org/stable/community.28039209?seq=1#metadata_info_tab_contents,Berkeley_CA_United States,-122.23963,37.8753497
Taos,NM,United States,"Jane Sipe, Jeweler",,Business,spiritual imagery and talis(wo)man; arts & crafts,Advertisement,Lesbian Connection,8,1,June/July,1985,https://www.jstor.org/stable/community.28039209?seq=1#metadata_info_tab_contents,Taos_NM_United States,-105.57328,36.4072377
Albany,NY,United States,Troubridge-J,,Business,"apparel; t-shirts with logos: ""heretic"" and ""if we can send one man to the moon, why can't we send them all?""",Advertisement,Lesbian Connection,8,1,June/July,1985,https://www.jstor.org/stable/community.28039209?seq=1#metadata_info_tab_contents,Albany_NY_United States,-73.754968,42.6511674
Somerville,MA,United States,Medusa Graphics,Thea's Tarot,Business,"Thea's Tarot cards, deck celebrating women",Advertisement,Lesbian Connection,8,1,June/July,1985,https://www.jstor.org/stable/community.28039209?seq=1#metadata_info_tab_contents,Somerville_MA_United States,-71.099497,42.3875968
West Hempstead,NY,United States,WMP/J&P,,Business,"Free ""Sunshine Catalog"" of lesbian/feminist t-shirts, jewelry, clothing, posters, notecards, etc.",Advertisement,Lesbian Connection,8,1,June/July,1985,https://www.jstor.org/stable/community.28039209?seq=1#metadata_info_tab_contents,West Hempstead_NY_United States,-73.65013,40.7048242
Jackson,WY,United States,SensuaSacreds,,Business,"Bronze sculptures by Thais, catalog available, art seller",Advertisement,Lesbian Connection,8,1,June/July,1985,https://www.jstor.org/stable/community.28039209?seq=1#metadata_info_tab_contents,Jackson_WY_United States,-110.76182,43.479965
Goodland,MN,United States,Sistersilver,M'lou Brubaker,Business,handmade woman-identified jewelry since 1971; arts and crafts,Advertisement,Lesbian Connection,8,1,June/July,1985,https://www.jstor.org/stable/community.28039209?seq=1#metadata_info_tab_contents,Goodland_MN_United States,-93.13576,47.161884
Copper Hill,VA,United States,Snake & Snake Productions,Susan Baylies,Business,apparel; handmade apparel; goddess imagery,Advertisement,Lesbian Connection,8,1,June/July,1985,https://www.jstor.org/stable/community.28039209?seq=1#metadata_info_tab_contents,Copper Hill_VA_United States,-77.66507,37.4546863
Camb,MA,United States,Cyprienne,,Business,"""sensuous handwoven chenille scarves""; handmade apparel",Advertisement,Lesbian Connection,8,1,June/July,1985,https://www.jstor.org/stable/community.28039209?seq=1#metadata_info_tab_contents,Camb_MA_United States,#N/A,#N/A
East Hardwick,VT,United States,Paint Creek Pottery,,Business,"woman-made pottery; catalog available, arts and crafts",Advertisement,Lesbian Connection,8,1,June/July,1985,https://www.jstor.org/stable/community.28039209?seq=1#metadata_info_tab_contents,East Hardwick_VT_United States,-72.308716,44.5217205
Norfolk,VA,United States,Lielin Jewelers,,Business,"lesbian and women imagery, goddess imagery, handmade jewelry, arts and crafts",Advertisement,Lesbian Connection,8,1,June/July,1985,https://www.jstor.org/stable/community.28039209?seq=1#metadata_info_tab_contents,Norfolk_VA_United States,-76.260234,36.8968052
Boston,MA,United States,Rose Ink,,Business,"apparel; new design ""powerful""",Advertisement,Lesbian Connection,8,1,June/July,1985,https://www.jstor.org/stable/community.28039209?seq=1#metadata_info_tab_contents,Boston_MA_United States,-71.060511,42.3554334
Durham,NC,United States,Travis Place,,Business,undergarments; by women for women,Advertisement,Lesbian Connection,8,1,June/July,1985,https://www.jstor.org/stable/community.28039209?seq=1#metadata_info_tab_contents,Durham_NC_United States,-78.901805,35.996653
Hampshire,IL,United States,Abbondanza,,Business,organic herbs and herb vinegars; food products,Advertisement,Lesbian Connection,8,1,June/July,1985,https://www.jstor.org/stable/community.28039209?seq=1#metadata_info_tab_contents,Hampshire_IL_United States,-88.530364,42.0978028
Willow,NY,United States,Tyshe Moonfeather,,Business,"personal healing crystals, magic, welcomes specic requests and donations",Advertisement,Lesbian Connection,8,1,June/July,1985,https://www.jstor.org/stable/community.28039209?seq=1#metadata_info_tab_contents,Willow_NY_United States,-74.227923,42.0764796
North Salt Lake City,UT,United States,Karla Player Jewelry,,Business,jewelry; arts and crafts,Advertisement,Lesbian Connection,8,1,June/July,1985,https://www.jstor.org/stable/community.28039209?seq=1#metadata_info_tab_contents,North Salt Lake City_UT_United States,-111.90414,40.7683239
Atlanta,GA,United States,Oversoul Massage Oil,,Business,"""charged with quartz crystal energy"", health and beauty",Advertisement,Lesbian Connection,8,1,June/July,1985,https://www.jstor.org/stable/community.28039209?seq=1#metadata_info_tab_contents,Atlanta_GA_United States,-84.390264,33.7489924
Palo Alto,CA,United States,Dotty Calabrese at The Artifactory,,Business,"scarves, bookmarks, herbal dream pillows, necklaces; arts and crafts",Advertisement,Lesbian Connection,8,1,June/July,1985,https://www.jstor.org/stable/community.28039209?seq=1#metadata_info_tab_contents,Palo Alto_CA_United States,-122.15985,37.4443293
Minneapolis,MN,United States,Radical Rose,,Business,"lesbian tapes on many subjects, music and spoken word",Advertisement,Lesbian Connection,8,1,June/July,1985,https://www.jstor.org/stable/community.28039209?seq=1#metadata_info_tab_contents,Minneapolis_MN_United States,-93.265469,44.9772995
Philadelphia,PA,United States,Sumaje,,Business,"Advertising ""First Time, Sexual Fun"" on cassette, by lesbians for lesbians",Advertisement,Lesbian Connection,8,1,June/July,1985,https://www.jstor.org/stable/community.28039209?seq=1#metadata_info_tab_contents,Philadelphia_PA_United States,-75.163526,39.9527237
El Segundo,CA,United States,Safire Systems,,Business,"national computerized introductions, says ""free info"" for meeting new friends with a ""perfect match system"" but lef it as a Business; could also be categorized as ""Other""; social networking",Advertisement,Lesbian Connection,8,1,June/July,1985,https://www.jstor.org/stable/community.28039209?seq=1#metadata_info_tab_contents,El Segundo_CA_United States,-118.41563,33.917028
Northampton,MA,United States,OLBJ (Old Lady Blue Jeans),,Business,"Announcement Title: ""Old Lady Blue Jeans."" Various items for sale with SASE - music, books note cards, coloring posters. See above for repeat entry on OLBJ.",Advertisement,Lesbian Connections,2,6,November,1976,https://www.jstor.org/stable/community.28039169?seq=1#metadata_info_tab_contents,Northampton_MA_United States,-72.631101,42.3178989
Chicago,IL,United States,Women's Graphic Collective,Woman's Graphics,Business,"Announcement Title: ""1977 Calendar."" Also sells t-shirts and posters.",Advertisement,Lesbian Connections,2,6,November,1976,https://www.jstor.org/stable/community.28039169?seq=1#metadata_info_tab_contents,Chicago_IL_United States,-87.624421,41.8755616
Benicia,CA,United States,Labyris,,Business,"Announcement Title: ""Mothermoon and Sistersun."" Selling gold, silver, porcelain, stoneware, and lesbian graphics",Advertisement,Lesbian Connections,2,6,November,1976,https://www.jstor.org/stable/community.28039169?seq=1#metadata_info_tab_contents,Benicia_CA_United States,-122.15858,38.049365
New Orleans,LA,United States,PAS Studio,,Business,"Announcement Title: ""PAS Studio."" Sells t-shirts promoting women's history/significant women in history.",Advertisement,Lesbian Connections,2,6,November,1976,https://www.jstor.org/stable/community.28039169?seq=1#metadata_info_tab_contents,New Orleans_LA_United States,-90.078213,29.9759983
Bear Lake,MI,United States,Correct Line Leather,,Business,"Title: ""Woman from San Antonio."" Seeking customer who bought butterfly wallets & didn't leave address.",Request,Lesbian Connections,4,1,August,1979,http://www.jstor.org/stable/community.28039188,Bear Lake_MI_United States,-86.148143,44.420835
Grand Rapids,MI,United States,Aradia Consciousness Center,,Business,"Title: ""Aradia Consciousness Center."" Advertising to those interested in participating in one-year training.",Advertisement,Lesbian Connections,4,1,August,1979,http://www.jstor.org/stable/community.28039188,Grand Rapids_MI_United States,-85.667864,42.9632405
Los Angeles,CA,United States,Feminist Horizons,,Business,"Title: ""Feminist Horizons."" Gift shop owned by women.",Advertisement,Lesbian Connections,4,1,August,1979,http://www.jstor.org/stable/community.28039188,Los Angeles_CA_United States,-118.24277,34.0536909
Provincetown,MA,United States,Womencrafts,,Business,"Title: ""Womencrafts."" Gift shop. No address or contact information.",Advertisement,Lesbian Connections,4,1,August,1979,http://www.jstor.org/stable/community.28039188,Provincetown_MA_United States,-70.185864,42.0525612
Provincetown,MA,United States,,,Business,"Title: ""P'Town Seasonal Rental."" ""To lesbians by lesbians.""",Advertisement,Lesbian Connections,4,1,August,1979,http://www.jstor.org/stable/community.28039188,Provincetown_MA_United States,-70.185864,42.0525612
Washington,DC,United States,Lammas,,Business,"Title: ""Lammas."" Books, music, crafts.",Advertisement,Lesbian Connections,4,1,August,1979,http://www.jstor.org/stable/community.28039188,Washington_DC_United States,-77.036543,38.8950368
Indianapolis,IN,United States,Labyris,,Business,"Title: ""Indpls, IN."" Private club for women over 21; men welcome if accompanied by members. Entertainment; music, concerts, open mics.",Advertisement,Lesbian Connections,4,1,August,1979,http://www.jstor.org/stable/community.28039188,Indianapolis_IN_United States,-86.15835,39.7683331
New Orleans,LA,United States,Terpsichore Productions,,Business,"Title: ""Terpsichore Productions."" ""Wimmin's production company."" Sparse ad.",Advertisement,Lesbian Connections,4,1,August,1979,http://www.jstor.org/stable/community.28039188,New Orleans_LA_United States,-90.078213,29.9759983
West Hempstead,NY,United States,Womanmade Products,,Business,"Title: ""From T-Shirts to Underwear."" Gift shop with feminist products and catalog.",Advertisement,Lesbian Connections,4,1,August,1979,http://www.jstor.org/stable/community.28039188,West Hempstead_NY_United States,-73.65013,40.7048242
Camp Verde,AZ,United States,Lilith,,Business,"Title: ""Amazon Astrology."" Horoscopes with discount for Lesbian Tide mention.",Advertisement,Lesbian Connections,4,1,August,1979,http://www.jstor.org/stable/community.28039188,Camp Verde_AZ_United States,-111.85432,34.5636358
Oakland,CA,United States,Suzanne Judith,,Business,"Title: ""Tarot Readings."" For women. No address; only phone",Advertisement,Lesbian Connections,4,1,August,1979,http://www.jstor.org/stable/community.28039188,Oakland_CA_United States,-122.27136,37.8044557
Buffalo,NY,United States,NYU Li Tao Club,,Business,"Title: ""T-Shirts For Sale."" Advertising t-shirts for women in the martial arts.",Advertisement,Lesbian Connections,4,1,August,1979,http://www.jstor.org/stable/community.28039188,Buffalo_NY_United States,-78.878392,42.8867166
Farwell,MI,United States,The Union,,Business,"Title: ""Lesbians."" Lesbian ordained minister offers to issue marriage certificates and offer blessings.",Advertisement,Lesbian Connections,4,1,August,1979,http://www.jstor.org/stable/community.28039188,Farwell_MI_United States,-84.866967,43.835025
Little River,CA,United States,Moon,,Business,"Title: ""Blood Sponge Bags."" Feminine hygiene products. No address, no phone.",Advertisement,Lesbian Connections,4,1,August,1979,http://www.jstor.org/stable/community.28039188,Little River_CA_United States,-123.78835,39.2707318
Gainesville,FL,United States,Ruth's Typing Service,,Business,"Title: ""Ruth's Typing Service."" Manuscript typing for $1/page",Advertisement,Lesbian Connections,4,1,August,1979,http://www.jstor.org/stable/community.28039188,Gainesville_FL_United States,-82.324985,29.6519684
Seattle,WA,United States,Kris Falco,,Business,"Title: ""Lesbian/Feminist Counselor & Therapist."" No address; only phone.",Advertisement,Lesbian Connections,4,1,August,1979,http://www.jstor.org/stable/community.28039188,Seattle_WA_United States,-122.33006,47.6038321
Tempe,AZ,United States,M. Hoedmaker,,Business,"Title: ""Chemical Shield Repels Instantly!"" Protective spray (like mace).",Advertisement,Lesbian Connections,4,1,August,1979,http://www.jstor.org/stable/community.28039188,Tempe_AZ_United States,-111.94001,33.4255056
Grand Rapids,MI,United States,Aradia/Workshops,,Business,"Title: ""Mythmaking Workshop."" Offers to bring workshop to towns.",Advertisement,Lesbian Connections,4,1,August,1979,http://www.jstor.org/stable/community.28039188,Grand Rapids_MI_United States,-85.667864,42.9632405
Preston Hollow,NY,United States,Project #1,,Business,"Title: ""Inspirational Lesbian Music."" Address ""Dept. B.""",Advertisement,Lesbian Connections,4,1,August,1979,http://www.jstor.org/stable/community.28039188,Preston Hollow_NY_United States,-74.207917,42.4445237
Clermont,IN,United States,,,Business,"Title: ""Love Poems and Other Hogwash."" Appears to advertise a book.",Advertisement,Lesbian Connections,4,1,August,1979,http://www.jstor.org/stable/community.28039188,Clermont_IN_United States,-86.322493,39.8097656
Eugene,OR,United States,Amazon Reality,,Business,"Title: ""A Woman's Touch."" Anthology of lesbian eroticism.",Advertisement,Lesbian Connections,4,1,August,1979,http://www.jstor.org/stable/community.28039188,Eugene_OR_United States,-123.09505,44.0505054
Washington,DC,United States,Moonforce Media,,Business,"Title: ""Films By and About Women.""",Advertisement,Lesbian Connections,4,1,August,1979,http://www.jstor.org/stable/community.28039188,Washington_DC_United States,-77.036543,38.8950368
Tarboro,NC,United States,Mimi Wilson,"Title: ""B'lieve I'll Run On."" Advertising title album by Sweet Honey and the Rock.",Business,"Title: ""Vegetarian Variations."" Cookbook for sale. Looks self published.",Advertisement,Lesbian Connections,4,1,August,1979,http://www.jstor.org/stable/community.28039188,Tarboro_NC_United States,-77.535805,35.8968236
Calgary,Alberta,Canada,Holomagic,,Business,Donated holographic labrys; no address,Donation,Lesbian Connections,12,2,September,1989,https://www.jstor.org/stable/community.28039234,Calgary_Alberta_Canada,-114.06547,51.0460954
New York,NY,United States,Eve's Garden,,Business,Donated gift certificate; no address,Donation,Lesbian Connections,12,2,September,1989,https://www.jstor.org/stable/community.28039234,New York_NY_United States,-74.006015,40.7127281
Palisades,NY,United States,Patricia Walsh,Creatrix Carvings,Business,Donated rubber stamps,Donation,Lesbian Connections,12,2,September,1989,https://www.jstor.org/stable/community.28039234,Palisades_NY_United States,-73.91346,41.0111793
Woodstock,NY,United States,Alix/Never Been Better,,Business,"Donated xxAlice / Never Been Better album, t-shirt, cards; no address",Donation,Lesbian Connections,12,2,September,1989,https://www.jstor.org/stable/community.28039234,Woodstock_NY_United States,-74.118249,42.0410578
Durham,NC,United States,Ladyslipper,,Business,Donated albums & cassettes,Donation,Lesbian Connections,12,2,September,1989,https://www.jstor.org/stable/community.28039234,Durham_NC_United States,-78.901805,35.996653
Durham,NC,United States,Snake & Snake Productions,,Business,Donated t-shirts,Donation,Lesbian Connections,12,2,September,1989,https://www.jstor.org/stable/community.28039234,Durham_NC_United States,-78.901805,35.996653
Gainesville,FL,United States,Dragonfly Graphics,Out-erwear,Business,Donated sweatshirt/t-shirts,Donation,Lesbian Connections,12,2,September,1989,https://www.jstor.org/stable/community.28039234,Gainesville_FL_United States,-82.324985,29.6519684
Miami,FL,United States,Something Special,,Business,"Donated ""dinners""",Donation,Lesbian Connections,12,2,September,1989,https://www.jstor.org/stable/community.28039234,Miami_FL_United States,-80.19362,25.7741728
Charlotte,MI,United States,Apple Schram Orchard,,Business,Donated organic apple cider,Donation,Lesbian Connections,12,2,September,1989,https://www.jstor.org/stable/community.28039234,Charlotte_MI_United States,-84.835579,42.5637369
Potterville,MI,United States,Aditi Art Glass,,Business,Donated stained glass vase; no address,Donation,Lesbian Connections,12,2,September,1989,https://www.jstor.org/stable/community.28039234,Potterville_MI_United States,-84.738874,42.629203
Lansing,MI,United States,Circe Productions,,Business,Donated concert pass; no address,Donation,Lesbian Connections,12,2,September,1989,https://www.jstor.org/stable/community.28039234,Lansing_MI_United States,-84.555381,42.7337712
Madison,WI,United States,A Room of One's Own,,Business,Donated datebooks,Donation,Lesbian Connections,12,2,September,1989,https://www.jstor.org/stable/community.28039234,Madison_WI_United States,-89.383761,43.074761
St. Louis,MO,United States,Mothersource Lesbian Friendship Network,,Business,Donated memberships; no address,Donation,Lesbian Connections,12,2,September,1989,https://www.jstor.org/stable/community.28039234,St. Louis_MO_United States,-90.242876,38.6319657
Denver,CO,United States,"All Images, Inc.",,Business,Donated cards,Donation,Lesbian Connections,12,2,September,1989,https://www.jstor.org/stable/community.28039234,Denver_CO_United States,-104.98486,39.7392364
Long Beach,CA,United States,Helio's Heart,,Business,Donated t-shirt,Donation,Lesbian Connections,12,2,September,1989,https://www.jstor.org/stable/community.28039234,Long Beach_CA_United States,-118.1916,33.7690164
Santee,CA,United States,The Wishing Well,,Business,Donated membership,Donation,Lesbian Connections,12,2,September,1989,https://www.jstor.org/stable/community.28039234,Santee_CA_United States,-116.97392,32.8383828
Emeryville,CA,United States,Redwood Records,,Business,Donated cassette; no address,Donation,Lesbian Connections,12,2,September,1989,https://www.jstor.org/stable/community.28039234,Emeryville_CA_United States,-122.28653,37.8314089
Oakland,CA,United States,Suzanne Judith,,Business,Donated tarot reading,Donation,Lesbian Connections,12,2,September,1989,https://www.jstor.org/stable/community.28039234,Oakland_CA_United States,-122.27136,37.8044557
Berkeley,CA,United States,Pleiades Records,,Business,Donated albums & t-shirts,Donation,Lesbian Connections,12,2,September,1989,https://www.jstor.org/stable/community.28039234,Berkeley_CA_United States,-122.23963,37.8753497
Jackson,CA,United States,Rachael Klein Aquarius,,Business,"Donated crystals, herbs, jewelry",Donation,Lesbian Connections,12,2,September,1989,https://www.jstor.org/stable/community.28039234,Jackson_CA_United States,-120.7741,38.3488024
Ashland,OR,United States,Sylva Marie,,Business,Donated menstrual sponges.,Donation,Lesbian Connections,12,2,September,1989,https://www.jstor.org/stable/community.28039234,Ashland_OR_United States,-122.7154,42.1972487
Washington,DC,United States,Pop Video,,Business,"In ""reviews"" section. Review of video entitled Lesbionage.",Advertisement,Lesbian Connections,12,2,September,1989,https://www.jstor.org/stable/community.28039234,Washington_DC_United States,-77.036543,38.8950368
Sacramento,CA,United States,Thrillseekers,,Business,"Title: ""Calling All Lesbian Travel Agents/Travel Lovin [sic] Lesbians!"" Seeking lesbian travel agents.",Request,Lesbian Connections,12,2,September,1989,https://www.jstor.org/stable/community.28039234,Sacramento_CA_United States,-121.4939,38.5810606
New York,NY,United States,Eve's Garden,,Business,"Title: ""Eve's Garden."" Advertising mail order catalog for erotica and sex toys",Advertisement,Lesbian Connections,12,2,September,1989,https://www.jstor.org/stable/community.28039234,New York_NY_United States,-74.006015,40.7127281
Woodstock,NY,United States,Wise Woman Center,,Business,"Title: ""Wise Woman Center."" Advertising catalog for herbal medicine and spirit healing.",Advertisement,Lesbian Connections,12,2,September,1989,https://www.jstor.org/stable/community.28039234,Woodstock_NY_United States,-74.118249,42.0410578
Columbus,OH,United States,The Grapevine Cafe,,Business,"Title: ""The Grapevine Cafe."" Food & bar - open to gay men and women, M-Sat",Advertisement,Lesbian Connections,12,2,September,1989,https://www.jstor.org/stable/community.28039234,Columbus_OH_United States,-83.000707,39.9622601
Seattle,WA,United States,Goddess Rising,,Business,"Title: ""Goddess Rising."" Dianic Wicce Shop and Journal of Womyn's Spirituality. Lesbian owned - only women welcome. Send for catalog or journal.",Advertisement,Lesbian Connections,12,2,September,1989,https://www.jstor.org/stable/community.28039234,Seattle_WA_United States,-122.33006,47.6038321
Brimfield,MA,United States,Lizzie Brown,,Business,"Title: ""Lizzie Brown."" Womyn-made jewelry. Mail for catalog.",Advertisement,Lesbian Connections,12,2,September,1989,https://www.jstor.org/stable/community.28039234,Brimfield_MA_United States,-89.886498,40.838926
Flushing,NY,United States,Shoshana,,Business,"Title: ""Photo Postcards."" Women-oriented humorous photo postcards.",Advertisement,Lesbian Connections,12,2,September,1989,https://www.jstor.org/stable/community.28039234,Flushing_NY_United States,-73.817429,40.7654301
Durham,NC,United States,Snake & Snake Productions,,Business,"Title: ""Snake & Snake Productions."" Goddess-themed t-shirts. Free catalog with SASE.",Advertisement,Lesbian Connections,12,2,September,1989,https://www.jstor.org/stable/community.28039234,Durham_NC_United States,-78.901805,35.996653
Graton,CA,United States,Jane Sipe - Jeweler,,Business,"Title: ""Jane Sipe - Jeweler."" Goddesses, crystals, images, $2 for catalog.",Advertisement,Lesbian Connections,12,2,September,1989,https://www.jstor.org/stable/community.28039234,Graton_CA_United States,-122.8657,38.4386185
Palisades,NY,United States,Creatrix Carvings,,Business,"Title: ""Creatrix Carvings."" Rubber stamp images, carvings.",Advertisement,Lesbian Connections,12,2,September,1989,https://www.jstor.org/stable/community.28039234,Palisades_NY_United States,-73.91346,41.0111793
Louisville,KY,United States,COASM,,Business,"Title: ""Note Cards, Writing Papers, J O T S, Poster."" Gifts for women - note cards, writing papers, posters",Advertisement,Lesbian Connections,12,2,September,1989,https://www.jstor.org/stable/community.28039234,Louisville_KY_United States,-85.759407,38.2542376
Ashland,OR,United States,Q's Bleeding Sponges,,Business,"Title: ""Q's Bleeding Sponges."" Feminine hygiene products.",Advertisement,Lesbian Connections,12,2,September,1989,https://www.jstor.org/stable/community.28039234,Ashland_OR_United States,-122.7154,42.1972487
Gainesville,FL,United States,Dragonfly Graphics,,Business,"Title: ""Identify Yourself!"" Screenprint shop.",Advertisement,Lesbian Connections,12,2,September,1989,https://www.jstor.org/stable/community.28039234,Gainesville_FL_United States,-82.324985,29.6519684
Metairie,LA,United States,Goddess Gowns,,Business,"Title: ""Goddess Gowns."" ""Hand-dyed cotton clothing.""",Advertisement,Lesbian Connections,12,2,September,1989,https://www.jstor.org/stable/community.28039234,Metairie_LA_United States,-90.150543,29.9899926
Indian Valley,VA,United States,Market Wimmin,,Business,"Title: ""Market Wimmin."" Various gifts, talismans, t-shirts, $1 catalog.",Advertisement,Lesbian Connections,12,2,September,1989,https://www.jstor.org/stable/community.28039234,Indian Valley_VA_United States,-80.552006,36.9087407
San Antonio,TX,United States,Lunacy Creations,,Business,"Title: ""Herb Chart."" Sells herb and crystal charts.",Advertisement,Lesbian Connections,12,2,September,1989,https://www.jstor.org/stable/community.28039234,San Antonio_TX_United States,-98.495141,29.4246002
Charlotte,NC,United States,Two of a Kind Jewelry,,Business,"Title: ""Two of a Kind Jewelry."" Offers catalog.",Advertisement,Lesbian Connections,12,2,September,1989,https://www.jstor.org/stable/community.28039234,Charlotte_NC_United States,-80.843083,35.2272086
Long Beach,CA,United States,Helio's Heart,,Business,"Title: ""Mythical Egyptian Womyn."" Hand-painted t-shirts ""all womyn drawings.""",Advertisement,Lesbian Connections,12,2,September,1989,https://www.jstor.org/stable/community.28039234,Long Beach_CA_United States,-118.1916,33.7690164
,,,Pure Water Network,Denise,Business,"Title: ""Five Million Dollars Spent Daily for Pure Water!"" No address.",Advertisement,Lesbian Connections,12,2,September,1989,https://www.jstor.org/stable/community.28039234,__,#N/A,#N/A
Oakland,CA,United States,Body Electric School,,Business,"Title: ""Learn Healing Touch."" Massage training in LGBTQ friendly environment w significant % of lesbian professionals.",Advertisement,Lesbian Connections,12,2,September,1989,https://www.jstor.org/stable/community.28039234,Oakland_CA_United States,-122.27136,37.8044557
Brooklyn,NY,United States,Charis Video,,Business,"Title: ""Charis Video."" Lesbian/feminist video shop.",Advertisement,Lesbian Connections,12,2,September,1989,https://www.jstor.org/stable/community.28039234,Brooklyn_NY_United States,-73.949721,40.6526006
San Francisco,CA,United States,The Women's Traveller,,Business,"Title: ""The Women's Traveller."" Lesbian guide (presumably to SFO).",Directory,Lesbian Connections,12,2,September,1989,https://www.jstor.org/stable/community.28039234,San Francisco_CA_United States,-122.41991,37.7790262
Cambridge,MA,United States,Cambridge Documentary Films,,Business,"Title: ""Choosing Children."" Documentary film.",Advertisement,Lesbian Connections,12,2,September,1989,https://www.jstor.org/stable/community.28039234,Cambridge_MA_United States,-71.105616,42.3750997
Tucson,AZ,United States,Herb Womon,,Business,"Title: ""Herb Womon."" Poetry & art for $7.",Advertisement,Lesbian Connections,12,2,September,1989,https://www.jstor.org/stable/community.28039234,Tucson_AZ_United States,-110.97485,32.2228765
Durham,NC,United States,Ladyslipper Music,,Business,"Title: ""Tired of Being Left Out of Your Culture?"" Advertises ""essential lesbian music"" by Alix Dobkin.",Advertisement,Lesbian Connections,12,2,September,1989,https://www.jstor.org/stable/community.28039234,Durham_NC_United States,-78.901805,35.996653
Seattle,WA,United States,Day Moon Designs,,Business,poster art; graphic design; tshirts; postcards,Advertisement,Lesbian Connection,,Winter Supplement,December,1977,https://www.jstor.org/stable/community.28039179?seq=3#metadata_info_tab_contents,Seattle_WA_United States,-122.33006,47.6038321
Seattle,WA,United States,Day Moon Designs,,Business,"Music, Cassette tapes, distribution of women artists, singer, songwriters",Advertisement,Lesbian Connection,,Winter Supplement,December,1977,https://www.jstor.org/stable/community.28039179?seq=3#metadata_info_tab_contents,Seattle_WA_United States,-122.33006,47.6038321
New Orleans,LA,United States,P.A.S. Studio,,Business,"T Shirts, custom prints and wholesale",Advertisement,Lesbian Connection,,Winter Supplement,December,1977,https://www.jstor.org/stable/community.28039179?seq=6,New Orleans_LA_United States,-90.078213,29.9759983
Benicia,CA,United States,Labyris,,Business,"Jewelry, pendants,smoking merch. Tshirts",Advertisement,Lesbian Connection,,Winter Supplement,December,1977,https://www.jstor.org/stable/community.28039179?seq=13,Benicia_CA_United States,-122.15858,38.049365
San Francisco,CA,United States,Lizzie Mac Phee,,Business,"Adult toys, Adult books, merch catalog",Advertisement,Lesbian Connection,,Winter Supplement,December,1977,https://www.jstor.org/stable/community.28039179?seq=13,San Francisco_CA_United States,-122.41991,37.7790262
